State,District,Latitude,Longitude,District code,Population,Male,Female,Literate,Male_Literate,Female_Literate,Hindus,Muslims,Christians,Sikhs,Buddhists,Jains,Housholds_with_Electric_Lighting,Households_with_Internet,Rural_Households,Urban_Households,Households,Below_Primary_Education,Primary_Education,Middle_Education,Secondary_Education,Higher_Education,Graduate_Education,Having_bathing_facility_Total_Households,Having_latrine_facility_within_the_premises_Total_Households,Sex Ratio,Literacy Rate
Andhra Pradesh,Adilabad,19.284513950073435,78.81321233480176,532,2741239,1369597,1371642,1483347,856350,626997,2399901,275970,15422,1377,25510,617,566108,5512,597466,220248,817714,232470,344167,281752,225957,143143,100226,378259,191052,1001.0,54.0
Andhra Pradesh,Anantapur,14.312065561843148,77.4601584478577,553,4081148,2064495,2016653,2310960,1338474,972486,3599372,443456,20463,932,341,1417,897970,8606,902997,341431,1244428,462273,720357,582075,331793,162175,144915,755971,353948,977.0,57.0
Andhra Pradesh,Chittoor,13.33109263067696,78.92763898886037,554,4174064,2090204,2083860,2667878,1484794,1183084,3737588,397870,24129,867,253,1322,944555,13763,907970,395900,1303870,522961,770836,673197,548336,265199,246409,754648,382377,997.0,64.0
Andhra Pradesh,East Godavari,16.782718320784902,82.2432074720511,545,5154296,2569688,2584608,3288577,1716933,1571644,4983330,77777,77825,738,413,4149,1297273,22411,1199479,406362,1605841,669420,947606,797497,521562,271809,263023,869464,800168,1006.0,64.0
Andhra Pradesh,Guntur,15.884925767634847,80.58657614107885,548,4887813,2440521,2447292,2960441,1634726,1325715,4217597,559770,89763,764,323,3282,1186028,19383,1069877,513113,1582990,736270,845810,674957,453446,246580,221924,904201,762845,1003.0,61.0
Andhra Pradesh,Hyderabad,17.38971555555556,78.46668888888888,536,3943323,2018575,1924748,2892155,1542688,1349467,2046051,1713405,87522,11446,1268,19560,869721,149034,0,1066289,1066289,230962,596591,685215,811501,517425,558090,873099,868186,954.0,73.0
Andhra Pradesh,Karimnagar,18.515483193277312,79.43765428571413,534,3776269,1880800,1895469,2206829,1257238,949591,3491139,244723,24979,2086,332,312,926768,8831,877236,288044,1165280,340372,453505,482842,463403,293493,256633,675283,452865,1008.0,58.0
Andhra Pradesh,Khammam,17.683921325051784,80.67008643892335,541,2797370,1390988,1406382,1630234,901640,728594,2595321,158887,33463,655,217,459,668519,8628,669262,201363,870625,295639,346118,329630,238811,154774,160804,403739,360531,1011.0,58.0
Andhra Pradesh,Krishna,16.143872753151673,81.14805061000413,547,4517398,2267375,2250023,3009718,1598959,1410759,4023678,307043,145598,1393,863,6320,1163932,30438,909292,567042,1476334,618101,692968,630603,531821,312753,328454,897201,863417,992.0,67.0
Andhra Pradesh,Kurnool,15.43759715142429,77.90086836581717,552,4053463,2039227,2014236,2127161,1246369,880792,3328380,670737,33165,737,255,2235,816721,10081,783853,306982,1090835,521327,672951,466940,271828,152453,115504,702120,353289,988.0,52.0
Andhra Pradesh,Mahbubnagar,16.639546224256293,77.98933089244859,538,4053028,2050386,2002642,1940646,1158386,782260,3673456,334172,21345,658,290,388,757821,6153,848963,161052,1010015,419379,596134,441585,308575,169083,98227,508140,231015,977.0,48.0
Andhra Pradesh,Medak,17.889304978038055,78.13778901903379,535,3033288,1523030,1510258,1637137,953406,683731,2637313,342449,34301,1309,554,457,604719,8635,593653,195479,789132,324267,503713,481984,373729,201928,127493,421856,293838,992.0,54.0
Andhra Pradesh,Nalgonda,17.113250515463907,79.16984453608244,539,3488809,1759772,1729037,2001019,1160757,840262,3249231,188646,35025,937,241,250,789225,7715,833504,197433,1030937,369537,518669,471233,367424,238695,196134,479824,355700,983.0,57.0
Andhra Pradesh,Nizamabad,18.429485849056604,78.07523490566035,533,2551335,1250641,1300694,1389810,790214,599596,2123426,391596,19653,2357,1847,542,545913,5261,565165,155133,720298,269487,421399,338668,396396,223365,141850,428790,245523,1040.0,54.0
Andhra Pradesh,Prakasam,15.489039001601704,80.11665790176184,549,3397448,1714764,1682684,1904435,1107686,796749,3150195,220654,18775,266,97,204,763746,6151,873486,214089,1087575,489805,495556,368919,249034,142026,133627,528518,321332,981.0,56.0
Andhra Pradesh,Srikakulam,18.570900998697432,84.25874814010675,542,2703114,1341738,1361376,1495381,857824,637557,2666950,9025,18879,193,77,160,615432,3988,752752,149684,902436,291793,348354,319244,251521,146721,121213,178089,146386,1015.0,55.0
Andhra Pradesh,Vizianagaram,18.28329696032972,83.45982854198873,543,2344474,1161477,1182997,1238388,707503,530885,2299129,16423,17853,380,114,815,527736,4453,592458,157056,749514,250446,300057,257468,186576,115144,103591,242486,131289,1019.0,53.0
Andhra Pradesh,Warangal,18.01752608695651,79.87422028985509,540,3512576,1759281,1753295,2065023,1179790,885233,3273755,197333,31377,1453,253,569,828077,12952,758738,288249,1046987,314252,457529,454322,430242,279234,248942,504897,388583,997.0,59.0
Andhra Pradesh,West Godavari,16.63297943925236,81.45912990654196,546,3936966,1964918,1972048,2652389,1379223,1273166,3733191,86142,109120,288,209,1578,1017568,12050,1007255,248373,1255628,595331,718960,585595,415178,215863,207586,720167,694857,1004.0,67.0
Arunachal Pradesh,Changlang,27.36048479338845,96.37552644628106,253,148226,76948,71278,73174,44027,29147,47683,2134,35969,94,50381,95,14593,170,33422,6498,39920,20425,22537,17354,10032,5641,3633,9721,19606,926.0,49.0
Arunachal Pradesh,East Kameng,27.371194055944056,93.04741486013997,247,78690,38775,39915,38449,21599,16850,12333,652,37136,36,452,23,5318,57,14503,5215,19718,11713,10487,8852,6213,4510,2330,4477,4703,1029.0,49.0
Arunachal Pradesh,East Siang,28.15382352941176,95.06499226006191,251,99214,50116,49098,62576,34210,28366,27854,2289,18254,69,776,30,14231,450,19497,9524,29021,9938,13713,13968,10937,9498,6540,8399,11735,980.0,63.0
Arunachal Pradesh,Kurung Kumey,28.04853351800553,93.24531994459834,256,92076,45318,46758,36606,20258,16348,4859,471,51189,43,121,81,3911,95,18603,1092,19695,12661,15054,12264,6997,4353,2031,2173,4066,1032.0,40.0
Arunachal Pradesh,Lohit,27.946785273972623,96.59670770547945,259,145726,76221,69505,83062,48380,34682,99020,3846,10684,210,24452,104,17157,312,33599,11372,44971,19306,25179,20643,13070,7612,5180,11806,17327,912.0,57.0
Arunachal Pradesh,Lower Dibang Valley,28.32651730103806,95.76567335640142,258,54080,28053,26027,31849,18087,13762,28915,2247,9213,33,2932,19,5932,207,12000,3950,15950,5875,7957,7351,5508,3570,2795,4945,6143,928.0,59.0
Arunachal Pradesh,Lower Subansiri,27.70849297297297,93.96226108108112,255,83030,41843,41187,54057,29470,24587,9551,1482,34402,27,193,13,12493,381,18112,5365,23477,8492,10821,11661,9861,7674,5230,8804,11232,984.0,65.0
Arunachal Pradesh,Papum Pare,27.273529716981127,93.54468183962264,248,176573,89182,87391,121048,65794,55254,57027,6148,84397,310,4768,139,30539,2477,20308,30180,50488,15368,21956,21376,20007,17342,13840,23052,25706,980.0,69.0
Arunachal Pradesh,Tawang,27.680683962264148,91.82504245283016,245,49977,29151,20826,26073,17720,8353,11842,787,776,1164,34920,72,8635,96,10730,2452,13182,4904,4730,4029,2140,1989,1379,3562,7026,714.0,52.0
Arunachal Pradesh,Tirap,26.94406229508198,95.41470327868862,254,111975,57604,54371,47974,29313,18661,20682,1103,83361,61,778,43,16026,98,18420,6500,24920,13585,16989,12077,7834,4305,2134,6582,16937,944.0,43.0
Arunachal Pradesh,Upper Siang,28.8309244897959,95.00155765306124,252,35320,18699,16621,18195,10723,7472,5261,411,5643,27,2577,7,6198,97,8569,2182,10751,3952,5584,4915,2935,2211,1349,2714,4413,889.0,52.0
Arunachal Pradesh,Upper Subansiri,28.277196566523585,93.8991435622318,249,83448,41758,41690,45278,24807,20471,13474,521,8779,28,297,11,5373,139,14542,4672,19214,10219,16118,15339,10348,8017,4276,5007,6658,998.0,54.0
Arunachal Pradesh,West Kameng,27.46486582278483,92.65015750452083,246,83947,46155,37792,48492,29566,18926,31265,1970,8466,328,36087,71,14188,202,17889,6306,24195,8836,10317,8428,5633,3987,2693,7421,8253,819.0,58.0
Arunachal Pradesh,West Siang,28.106296920289843,94.53510344202908,250,112274,58168,54106,64746,36777,27969,15881,2218,29969,577,3311,49,14204,303,22272,8503,30775,14227,17675,15908,11441,8418,6030,10692,15800,930.0,58.0
Assam,Barpeta,26.427872264631056,90.97912010178116,303,1693622,867004,826618,897058,499038,398020,492966,1198036,1020,112,49,399,84804,2078,447189,52192,499381,210607,307884,300845,121924,87377,46947,97152,243504,953.0,53.0
Assam,Bongaigaon,26.45012521994133,90.6734296187684,319,738804,375818,362986,434078,237114,196964,359145,371033,5924,384,236,871,49866,2523,181923,38470,220393,93591,138294,133643,55924,35491,20221,47000,84687,966.0,59.0
Assam,Cachar,24.815570668693017,92.86849650455927,316,1736617,886284,850333,1174128,639946,534182,1038985,654816,37635,280,341,1673,140205,5316,346227,88933,435160,256855,447993,379469,156156,79766,45341,159266,298041,959.0,68.0
Assam,Darrang,26.58463215962442,92.04141338028155,325,928500,475273,453227,487039,268666,218373,327322,597392,1688,431,57,724,45444,1166,268517,20189,288706,119027,163277,161153,59039,47398,22267,46789,95080,954.0,52.0
Assam,Dhemaji,27.586533438485816,94.71336908517353,308,686133,351249,334884,423028,237761,185267,655052,13475,8711,297,911,167,28195,1192,211758,16504,228262,79107,138838,136371,80804,55399,28006,37742,57995,953.0,62.0
Assam,Dibrugarh,27.30612284482757,95.0998282327587,310,1326335,676434,649901,884531,491361,393170,1198401,64526,52968,2261,4673,1055,136685,8817,299852,77163,377015,143189,243607,301287,139813,89500,59380,177759,214721,961.0,67.0
Assam,Goalpara,26.017277777777807,90.59869891598912,302,1008183,513292,494891,563577,304302,259275,347878,579929,77862,771,194,477,78641,1364,228610,39504,268114,124700,213510,183904,73683,39885,18294,60181,129311,964.0,56.0
Assam,Golaghat,26.377219709794485,93.82583397823468,313,1066888,543161,523727,721764,396475,325289,917426,90312,50582,1131,3863,530,82345,3073,292893,34190,327083,117393,223902,261192,111145,66197,36887,123520,153723,964.0,68.0
Assam,Hailakandi,24.457496089385486,92.59154664804475,318,659296,337890,321406,407366,226836,180530,251194,397653,8480,84,490,247,44143,1211,159215,16202,175417,88596,177984,139029,50056,28504,11608,49075,119292,951.0,62.0
Assam,Jorhat,26.76244824016563,94.30197722567289,312,1092256,556805,535451,794929,432335,362594,1008219,54684,21051,1540,2378,719,122063,5651,286330,80824,367154,99454,201680,295444,128050,97025,62608,145819,155435,962.0,73.0
Assam,Kamrup,26.170939452054807,91.58863273972592,321,1517542,778461,739081,995319,550219,445100,877495,601784,33297,319,185,1330,122191,3109,390596,43849,434445,163849,290097,353861,154831,118849,55011,124575,180800,949.0,66.0
Assam,Karbi Anglong,26.08966454598031,93.11536570271832,314,956313,490167,466146,557214,314253,242961,766000,20290,157789,370,6260,397,53918,1923,215691,37185,252876,109324,212224,199289,93137,40602,18225,51860,96932,951.0,58.0
Assam,Karimganj,24.69660712250711,92.3679498575498,317,1228686,625864,602822,795297,435942,359355,521962,692489,11990,114,446,524,70951,1933,261945,32695,294640,198059,333885,257931,76685,39637,21408,98861,210254,963.0,65.0
Assam,Kokrajhar,26.497246635730868,90.13997470997688,300,887142,452905,434237,489305,275220,214085,529068,252271,101091,93,1718,396,41373,1218,204896,17115,222011,116899,166013,154715,78788,39571,17287,28132,52532,959.0,55.0
Assam,Lakhimpur,27.14128805970149,94.0775949253732,307,1042137,529674,512463,683486,375552,307934,797130,193476,46217,412,1074,250,60296,1948,293239,34694,327933,126950,212080,217497,107326,82885,44212,73904,117971,968.0,66.0
Assam,Nagaon,26.26462170626351,92.9306191144708,305,2823768,1439112,1384656,1710716,921850,788866,1225246,1563203,26844,3036,1073,1162,195631,5121,674999,124186,799185,392616,638088,576214,199792,115864,66994,250174,422431,962.0,61.0
Assam,Nalbari,26.46323767605632,91.40598521126763,323,771639,396006,375633,531771,293184,238587,491582,277488,429,62,27,1004,68313,1631,210706,28238,238944,75866,141690,192771,81507,71734,39368,80855,103600,949.0,69.0
Assam,Sonitpur,26.73514926829268,92.85197804878044,306,1924110,983904,940206,1108572,620525,488047,1422824,350536,138166,1363,5088,1003,133368,4358,483325,64528,547853,216097,416218,377653,141373,90385,49901,177951,228882,956.0,58.0
Assam,Tinsukia,27.53549291139241,95.69055949367085,309,1327929,680231,647698,798322,453449,344873,1181347,48373,76877,1999,16228,837,161718,5135,290704,90910,381614,150893,266717,276292,109805,61040,38152,167479,217556,952.0,60.0
Bihar,Araria,26.211528119180603,87.30766554934816,209,2811569,1463333,1348236,1195768,727643,468125,1593525,1207442,4116,371,187,1910,43290,2561,659061,44213,703274,625357,426625,206161,112955,68177,39627,225043,52549,921.0,43.0
Bihar,Aurangabad,24.774291867469877,84.45986024096379,235,2540073,1318684,1221389,1466002,868733,597269,2291133,237353,2218,295,334,775,44456,2362,428291,49006,477297,559512,482199,302662,253142,136783,91371,166509,84329,926.0,58.0
Bihar,Aurangabad,24.774291867469877,84.45986024096379,515,3701282,1924469,1776813,2503837,1430936,1072901,2545438,786677,15991,5142,309093,30981,589477,23258,551789,427343,979132,381695,686271,422964,537936,310762,253253,616355,360410,923.0,68.0
Bihar,Banka,24.832355642023337,86.8664916342413,225,2034763,1067140,967623,965321,590961,374360,1772655,250925,6138,139,113,94,62359,1704,425604,18492,444096,408188,386707,196305,120653,63103,35767,88429,46555,907.0,47.0
Bihar,Begusarai,25.54302613168723,86.12560144032932,222,2970541,1567660,1402881,1548673,918507,630166,2554330,407348,2209,402,229,276,120373,4644,594377,139248,733625,577601,484502,291877,207136,144783,101836,193224,186662,895.0,52.0
Bihar,Bhagalpur,25.277192885375477,87.04213814229242,224,3037766,1615663,1422103,1573066,937669,635397,2487866,537098,3556,415,180,1050,174534,6764,522527,130634,653161,614644,524322,300767,247079,154643,118843,208730,189954,880.0,52.0
Bihar,Bhojpur,25.50666439393939,84.49407803030304,231,2728407,1430380,1298027,1599151,973486,625665,2518216,197819,2165,544,647,1472,62153,3661,434559,77368,511927,581580,605307,367059,313509,163303,131137,216412,112983,907.0,59.0
Bihar,Buxar,25.48593018867924,84.08808081760995,232,1706352,887977,818375,989807,593544,396263,1591454,105423,2125,248,5090,97,46760,1784,299252,35405,334657,331675,420187,256124,178044,89306,64117,130771,64826,922.0,58.0
Bihar,Darbhanga,26.146187719298258,85.97387352472099,215,3937385,2059949,1877436,1816634,1125566,691068,3042729,881476,3534,832,245,236,127442,6280,907174,95539,1002713,672797,490534,332382,224622,152540,129597,247667,202524,911.0,46.0
Bihar,Gaya,24.7266541547278,84.94291217765044,236,4391418,2266566,2124852,2297613,1368803,928810,3876395,488121,3943,913,870,1723,112617,6856,696289,111282,807571,902272,757690,447480,342254,191824,131163,260921,167232,937.0,52.0
Bihar,Gopalganj,26.44874364161851,84.34636127167629,217,2562012,1267666,1294346,1382998,793905,589093,2119262,436057,2463,271,167,133,69375,3707,515925,38133,554058,540603,470828,291624,223776,123249,79109,209045,84425,1021.0,54.0
Bihar,Jamui,24.78418380462726,86.26316298200514,238,1760405,916064,844341,858588,534385,324203,1525746,217621,8443,162,159,87,32633,1839,325909,30851,356760,420472,317612,153973,104211,56137,29633,64170,45733,922.0,49.0
Bihar,Jehanabad,25.155679045643165,84.9208124481328,239,1125313,585582,539731,618881,374412,244469,1045117,75742,691,148,248,60,27641,1106,186660,28132,214792,211761,165906,117558,112966,68748,45519,74772,50439,922.0,55.0
Bihar,Katihar,25.56565356037151,87.70466083591326,212,3071029,1600430,1470599,1280190,762256,517934,1684589,1365645,8659,2754,212,507,60900,2941,668232,69838,738070,472616,444260,237243,133811,88498,57114,200849,108018,919.0,42.0
Bihar,Khagaria,25.53558891454964,86.56593256351037,223,1666886,883786,783100,768028,461153,306875,1486989,175588,1253,143,79,86,40641,1580,373696,21007,394703,350601,233494,130004,100555,65931,38697,88774,78061,886.0,46.0
Bihar,Kishanganj,26.324336758321294,87.95045007235886,210,1690400,866970,823430,745056,439921,305135,531236,1149095,5783,398,183,1476,58718,1093,401793,43357,445150,356401,235779,89025,42778,25989,15386,108435,34858,950.0,44.0
Bihar,Lakhisarai,25.183449321266963,86.12825701357468,227,1000912,526345,474567,507270,305182,202088,956396,40886,487,140,52,78,44491,1186,175882,31763,207645,172076,149312,111684,85807,48001,27261,60658,52316,902.0,51.0
Bihar,Madhepura,25.77341929460581,86.8978443983403,213,2001762,1047559,954203,834577,517666,316911,1753829,241760,1342,170,60,133,23236,1397,486278,24000,510278,340813,189431,114474,99437,79891,44955,139028,52388,911.0,42.0
Bihar,Madhubani,26.41380538172716,86.16328360450552,207,4487379,2329313,2158066,2155338,1340085,815253,3652168,818912,3262,564,328,442,113281,5319,1047552,41234,1088786,783888,771417,520875,303114,170563,137780,235903,166993,926.0,48.0
Bihar,Munger,25.198537962962963,86.54173672839504,226,1367765,729041,638724,801817,473741,328076,1252319,110416,1815,338,95,145,90461,2653,222281,85782,308063,226699,158699,146414,147152,101907,64469,109560,102385,876.0,59.0
Bihar,Muzaffarpur,26.18664417177915,85.32745092024543,216,4801062,2527497,2273565,2509232,1487117,1022115,4032773,745546,5149,933,288,382,180651,10290,998694,120700,1119394,1092952,743623,419433,299475,194920,138916,346386,256532,900.0,52.0
Bihar,Nalanda,25.229345508982053,85.48053113772461,229,2877653,1497060,1380593,1519933,919558,600375,2669775,198033,1978,393,414,561,101378,4156,514141,102522,616663,581978,486266,320839,274556,177358,133032,180298,149675,922.0,53.0
Bihar,Nawada,24.825708836206903,85.61594568965519,237,2219146,1144668,1074478,1091012,659474,431538,1964620,244394,1299,250,176,279,31162,1841,379551,45323,424874,601011,368649,195072,161127,95943,64585,132057,77297,939.0,49.0
Bihar,Pashchim Champaran,27.16064352201258,84.30265911949685,203,3935042,2061110,1873932,1759481,1091226,668255,3047427,865090,8469,926,1337,296,57546,3495,839514,96620,936134,1053481,543965,250243,159563,98732,70669,270894,112382,909.0,45.0
Bihar,Patna,25.40297114503818,85.3198433587787,230,5838465,3078512,2759953,3459679,2028047,1431632,5356075,439952,12551,4803,1062,2151,546859,40692,657991,552103,1210094,1244842,1095655,920051,698351,463361,452340,562795,507581,897.0,59.0
Bihar,Purba Champaran,26.68129336734693,85.00382155612242,204,5099371,2681209,2418162,2276957,1407603,869354,4086453,990349,4865,668,878,464,74979,7719,1142260,101565,1243825,1280809,982506,450631,241118,121594,68781,391064,179522,902.0,45.0
Bihar,Purnia,25.81714801901739,87.40447606973065,211,3264619,1699370,1565249,1332326,805261,527065,1989420,1255641,7989,614,353,1450,86058,4170,712847,85749,798596,668690,360243,184327,119259,83226,59996,234013,87774,921.0,41.0
Bihar,Rohtas,24.99170460829495,83.9350762672811,234,2959918,1543546,1416372,1799832,1061783,738049,2645415,300487,2889,2569,1584,252,114893,4594,512383,95678,608061,535187,548971,399053,333053,194928,161555,248462,128652,918.0,61.0
Bihar,Saharsa,25.821270696721303,86.54670819672135,214,1900661,997174,903487,804996,506374,298622,1629254,266620,1292,197,60,109,41342,1668,432651,38046,470697,348300,194897,104182,90182,64560,47051,113421,61597,906.0,42.0
Bihar,Samastipur,25.793205563909765,85.94833323308269,221,4261566,2230003,2031563,2142880,1293575,849305,3800598,452370,2126,554,292,231,88021,5379,1012979,43486,1056465,781038,710468,438908,284082,186153,129933,213527,159459,911.0,50.0
Bihar,Saran,25.89656077844312,84.82266287425155,219,3951862,2022821,1929041,2157454,1285767,871687,3534772,406449,2330,371,229,322,94787,4509,701323,76299,777622,793945,693465,433759,361171,213251,148065,276656,137526,954.0,55.0
Bihar,Sheikhpura,25.12472436548223,85.77839390862943,228,636342,329743,306599,328676,196431,132245,596102,37653,313,75,41,43,20065,631,108293,24345,132638,129673,110525,59529,52860,33856,19676,35018,30019,930.0,52.0
Bihar,Sheohar,26.458380748663107,85.29539411764709,205,656246,346673,309573,283698,171645,112053,552492,99342,522,216,73,52,10004,478,158484,7516,166000,128209,91277,37063,25657,16031,10091,52118,30398,893.0,43.0
Bihar,Sitamarhi,26.56570069686413,85.61172491289203,206,3423574,1803252,1620322,1436794,885188,551606,2672311,740101,2897,261,253,188,66263,3460,807294,49670,856964,733380,394422,196321,136500,92783,70549,217626,152392,899.0,42.0
Bihar,Siwan,26.1736372013652,84.33766552901022,218,3330464,1675090,1655374,1930175,1115906,814269,2712635,608282,2618,369,407,359,52935,3834,632514,41858,674372,689880,612635,445257,355277,186817,119164,276680,124672,988.0,58.0
Bihar,Supaul,26.28157893772896,86.78496465201461,208,2229076,1155283,1073793,1033283,647672,385611,1809936,409251,3758,271,136,546,51028,1845,572287,27815,600102,467768,269737,157787,99530,69665,45726,152501,47753,929.0,46.0
Bihar,Vaishali,25.8134703180212,85.39247597173153,220,3495021,1844535,1650486,1926740,1152576,774164,3152346,333980,2203,707,362,246,70001,4810,699317,51494,750811,810191,487594,370247,291392,178320,124448,208882,171904,895.0,55.0
Chandigarh,Chandigarh,30.7426,76.75872465753424,55,1055450,580663,474787,805438,465346,340092,852574,51447,8720,138329,1160,1960,231204,44283,8911,289456,298367,80406,118667,114209,124707,98786,174528,210801,206017,818.0,76.0
Chhattisgarh,Bastar,19.393866751269048,81.52895126903546,414,1413199,698487,714712,650863,382335,268528,1277975,12413,27951,2099,985,3466,157646,1782,316425,54894,371319,183667,178766,139330,60936,57413,32895,48350,62326,1023.0,46.0
Chhattisgarh,Bilaspur,22.356942982456143,81.99770350877188,30,381956,192764,189192,287620,155599,132021,371973,6984,236,2387,113,10,79146,1574,152458,11987,164445,35817,59489,53515,64730,45695,25474,61113,56814,981.0,75.0
Chhattisgarh,Bilaspur,22.356942982456143,81.99770350877188,406,2663629,1351574,1312055,1596560,932474,664086,2540763,57973,20745,6373,2979,2357,519704,8566,549632,188174,737806,382091,407692,337793,189296,152838,134637,135945,171271,971.0,60.0
Chhattisgarh,Dhamtari,20.554912627291245,81.7569195519348,412,799781,397897,401884,546833,303924,242909,777188,10425,2644,1196,667,3612,148926,1016,168689,41792,210481,143128,148544,120146,65196,58875,31319,29042,50033,1010.0,68.0
Chhattisgarh,Durg,21.194463849287164,81.33181639511197,409,3343872,1682101,1661771,2303378,1284612,1018766,3129745,83499,24304,24276,19587,17209,614109,16141,533448,349741,883189,463598,573291,497668,309508,286244,202424,235446,228551,988.0,69.0
Chhattisgarh,Jashpur,22.77286167664669,83.8703962075848,402,851669,424747,426922,495415,280656,214759,629509,15336,189588,474,467,694,76783,567,205670,20722,226392,120768,137681,127299,64188,50562,26161,13683,27142,1005.0,58.0
Chhattisgarh,Korba,22.491712499999995,82.57604326923074,404,1206640,612915,593725,748759,433391,315368,1133176,30195,21059,3666,897,753,202380,4544,206598,126055,332653,178191,188303,168387,89167,83166,61215,67505,77854,969.0,62.0
Chhattisgarh,Koriya,23.50412776859501,82.12515636363635,400,658917,334737,324180,397823,229923,167900,604259,25878,9398,1391,84,1155,80023,1667,121852,59763,181615,143413,109639,87969,47127,38677,26802,38370,35636,968.0,60.0
Chhattisgarh,Mahasamund,21.223727037773354,82.65925427435384,411,1032754,511967,520787,637963,364089,273874,1008061,12570,5284,2941,521,1495,212487,961,274793,35774,310567,179770,194739,152183,78583,57949,33357,26449,48150,1017.0,62.0
Chhattisgarh,Raigarh,22.008265068493166,83.27797698630134,403,1493984,750278,743706,951639,542756,408883,1422986,17332,47653,2117,781,409,297308,3342,354278,66638,420916,246480,260661,210964,130700,93340,66358,50603,69909,991.0,64.0
Chhattisgarh,Raigarh,22.008265068493166,83.27797698630134,520,2634200,1344345,1289855,1939994,1059692,880302,2239370,227465,17452,7477,121791,12260,547206,38570,581868,377160,959028,231263,407662,335886,441072,221410,204507,547214,369857,959.0,74.0
Chhattisgarh,Raipur,20.88603153846152,82.20032759615388,410,4063872,2048186,2015686,2629749,1493158,1136591,3881485,103038,23181,16707,8397,17137,728556,20261,673499,395001,1068500,618508,664470,552373,313247,267265,227382,259502,267090,984.0,65.0
Chhattisgarh,Surguja,23.32719278728607,83.23582493887531,401,2359886,1193129,1166757,1187941,694686,493255,2126195,81442,97432,2303,1287,623,253131,2737,525596,65167,590763,364452,338509,281260,135374,105992,64607,59109,130736,978.0,50.0
Daman and Diu,Daman,20.431616666666677,72.8392366071429,495,191173,124659,66514,150348,104316,46032,171537,16087,2618,169,216,244,49249,1316,10006,61073,71079,8957,28094,30406,26991,14170,9128,40804,40951,534.0,79.0
Daman and Diu,Junagadh,20.72568199498111,70.83985639899612,479,2743082,1404356,1338726,1842818,1046981,795837,2397056,334858,2586,1110,1291,3841,498326,6628,489237,287506,776743,271762,700258,294811,311849,137505,139957,344568,313730,953.0,67.0
Goa,North Goa,15.548723418714054,73.80667997909038,585,818008,416677,401331,663060,351738,311322,622213,57941,134169,618,553,546,173951,23440,115859,209230,325089,40968,101521,148792,153887,87513,86781,159976,140924,963.0,81.0
Goa,South Goa,15.195278658183785,73.941792596877,586,640537,322463,318074,502427,264085,238342,341664,63623,231961,855,542,563,138810,17624,88620,162873,251493,29874,73039,119869,108989,64786,57460,129135,116414,986.0,78.0
Gujarat,Ahmadabad,22.605425564971743,72.23898135593227,474,7214225,3788051,3426174,5435760,3025463,2410297,6042416,883238,50754,14542,4518,209287,1456046,126341,353169,1845383,2198552,761358,1614370,805199,1135058,549188,839295,1295122,1241055,904.0,75.0
Gujarat,Amreli,21.04832649310872,71.43457637825426,480,1514190,771049,743141,995459,558180,437279,1410463,99105,919,415,243,2053,273331,2538,313714,116899,430613,230474,412251,120625,149478,66785,50999,201157,173045,964.0,66.0
Gujarat,Anand,22.282718206229863,72.57782051557454,482,2092745,1087224,1005521,1551253,874481,676772,1798794,250919,29789,1524,267,8591,378310,9902,413078,208909,621987,257524,560542,229013,283571,127459,110351,254683,230571,925.0,74.0
Gujarat,Banas Kantha,24.258538965517253,71.93205252873561,469,3120506,1610379,1510127,1704923,1048402,656521,2890305,213505,1686,486,281,12659,396873,3424,666773,137424,804197,366867,859436,159433,226765,105372,66950,229091,146022,938.0,55.0
Gujarat,Bharuch,21.75787276237761,72.67326346710801,488,1551019,805707,745312,1118276,623047,495229,1188204,343511,9494,1733,442,4813,309091,10257,300677,181319,481996,161675,367060,164765,188539,83895,74380,261660,204943,925.0,72.0
Gujarat,Bhavnagar,21.70219390341736,72.16272632761141,481,2880365,1490201,1390164,1887255,1087371,799884,2632574,212863,3457,1410,445,26974,500757,7297,387251,356826,744077,422461,929286,266953,281250,96241,93391,375112,292210,933.0,66.0
Gujarat,Gandhinagar,23.193679790026252,72.67221679790026,473,1391753,723864,667889,1030494,582686,447808,1319586,57273,3237,1985,497,6405,262539,12107,237624,195634,433258,136131,363156,133594,196456,95730,108400,193174,171166,923.0,74.0
Gujarat,Jamnagar,22.410600414263328,69.62062005768233,477,2160119,1114192,1045927,1396534,795140,601394,1810443,320805,4392,1873,1086,18856,386538,11573,347158,299167,646325,255785,491009,194057,199634,74029,87523,285899,242841,939.0,65.0
Gujarat,Junagadh,20.929523011609785,70.54733890140345,479,2743082,1404356,1338726,1842818,1046981,795837,2397056,334858,2586,1110,1291,3841,498326,6628,489237,287506,776743,271762,700258,294811,311849,137505,139957,344568,313730,953.0,67.0
Gujarat,Kachchh,23.48057203301311,68.82192301497916,468,2092371,1096737,995634,1252319,739239,513080,1608921,442355,6192,6353,490,25312,403294,9631,488293,250982,739275,246956,469402,141345,157284,61366,60386,329920,280257,908.0,60.0
Gujarat,Kheda,22.88765312500002,73.018803515625,483,2299885,1185727,1114158,1660243,942480,717763,2000884,264482,26629,1403,300,3479,372226,5710,461479,160547,622026,295057,641541,250044,310341,148530,84223,220959,172599,940.0,72.0
Gujarat,Mahesana,23.529355452865065,72.45545194085031,471,2035064,1056520,978544,1502645,847499,655146,1885732,136431,1954,1082,146,7087,385609,7759,476005,183738,659743,260278,467128,183468,266108,139208,130723,290574,232825,926.0,74.0
Gujarat,Narmada,21.70666386292833,73.68403208722742,487,590297,301086,289211,370336,211767,158569,559848,22600,4413,147,80,373,101940,576,138121,22248,160369,76197,146661,58188,52687,28396,14748,65190,27223,961.0,63.0
Gujarat,Navsari,20.866973318871995,72.86184869848157,490,1329672,678165,651507,1001909,539471,462438,1225087,78669,5733,2459,601,13386,267679,6726,267739,141417,409156,145678,266733,140235,190861,112460,85041,201380,168150,961.0,75.0
Gujarat,Panch Mahals,22.80435606837605,73.61984598290586,484,2390776,1226961,1163815,1440805,858054,582751,2220974,158513,2863,662,337,5236,398937,3456,463363,104238,567601,255905,601358,205420,283648,139773,71810,181557,121676,949.0,60.0
Gujarat,Patan,23.80634198473284,71.75162977099237,470,1343734,694397,649337,837913,494631,343282,1194745,142797,916,337,66,3602,223424,2231,301483,102655,404138,168990,364667,78731,129584,57494,46355,157715,123977,935.0,62.0
Gujarat,Porbandar,21.55092351651571,69.71896987722886,478,585449,300209,285240,393678,221621,172057,549749,33565,500,248,91,515,117040,1653,96015,87557,183572,50588,150643,71637,63458,25119,22458,79955,72287,950.0,67.0
Gujarat,Rajkot,22.40603377715488,70.83679439383323,476,3804558,1974445,1830113,2725056,1514075,1210981,3397406,361388,5478,1918,1170,33591,747352,21785,459474,721532,1181006,383780,913928,402240,540278,204306,266295,593448,543342,927.0,72.0
Gujarat,Sabar Kantha,23.71803594548552,73.13638790459964,472,2428589,1244231,1184358,1578734,918625,660109,2260560,148563,6375,614,168,11110,438606,5262,544024,121509,665533,214062,597667,211423,333650,198963,110817,231094,182583,952.0,65.0
Gujarat,Surat,21.25761372772093,72.93488716344339,492,6081322,3402224,2679098,4571410,2687468,1883942,5260193,660772,21052,5703,12902,112835,1252452,55694,369840,1529998,1899838,566242,1332690,807021,896927,433651,379505,1150519,1103767,787.0,75.0
Gujarat,Surendranagar,22.82672007299272,71.48358740875906,475,1756268,909917,846351,1093626,643221,450405,1620282,109681,1419,512,312,22992,302068,2975,340788,159810,500598,234873,482679,165406,172947,61164,58389,192991,120741,930.0,62.0
Gujarat,The Dangs,20.801633877551023,73.6883518367347,489,228291,113821,114470,140968,77314,63654,203545,3593,20029,69,32,39,29794,137,52102,7516,59618,43639,59954,17736,14872,7560,3490,20702,13736,1006.0,62.0
Gujarat,Vadodara,22.26133739279589,73.49433010291594,486,4165626,2153736,2011890,2893080,1614087,1278993,3713941,384579,23813,9340,2069,27650,798277,53606,547454,692971,1240425,396624,865726,457662,504732,268451,314960,632580,543474,934.0,69.0
Gujarat,Valsad,20.44238231644259,72.9148584798345,491,1705678,887222,818456,1170657,655528,515129,1571147,94034,19661,1589,913,13809,329218,11020,262410,235981,498391,165459,303197,171712,212318,123281,90912,232568,170861,922.0,69.0
Haryana,Ambala,30.3503672316384,76.94970310734456,70,1128350,598703,529647,818025,461288,356737,955096,22143,3705,138202,381,4845,199681,12899,175365,139891,315256,89558,170110,161844,163544,97980,91472,186183,142922,885.0,72.0
Haryana,Bhiwani,28.728868064516128,76.02110225806452,81,1634445,866672,767773,1069871,643158,426713,1611031,15515,873,2401,254,1016,266244,5292,357047,99235,456282,186145,223049,198307,218631,148995,104875,241914,175689,886.0,65.0
Haryana,Faridabad,28.14873109756098,77.32718536585368,88,1809733,966110,843623,1272739,734940,537799,1588407,161680,9743,34572,640,4883,333171,43437,87700,382981,470681,137902,220384,198551,282666,178846,259933,313812,296399,873.0,70.0
Haryana,Fatehabad,29.57298318584072,75.54608716814157,78,942011,495360,446651,557578,327471,230107,779243,8360,996,150969,171,1172,153301,3210,203020,55360,258380,103541,136663,99948,93526,61476,37741,152219,134586,902.0,59.0
Haryana,Gurgaon,28.043894789579163,77.01935130260523,86,1514432,816690,697742,1111116,638666,472450,1408801,70842,9725,15097,944,7451,305751,67087,141703,381988,523691,126920,177453,175370,219200,150120,233402,290709,271169,854.0,73.0
Haryana,Hisar,29.23628731117825,75.84324682779452,80,1743931,931562,812369,1114311,670200,444111,1701061,21650,1945,12270,334,3620,285004,10132,302013,154113,456126,197303,230074,194595,202792,144626,105346,273915,231144,872.0,64.0
Haryana,Jhajjar,28.59651868131869,76.61137142857145,83,958405,514667,443738,676091,399480,276611,945693,8247,734,1042,105,645,168558,5034,211816,78328,290144,90737,109829,115794,145258,97457,58826,153834,123545,862.0,71.0
Haryana,Jind,29.45149821958457,76.29598575667653,77,1334152,713006,621146,832758,502049,330709,1276669,23016,889,29103,172,2594,222462,5263,278335,89665,368000,136892,185626,151682,154773,107994,64599,186317,146428,871.0,62.0
Haryana,Kaithal,29.96068539094649,76.37698930041155,73,1074304,571003,503301,646529,385782,260747,974520,8232,1769,87558,265,351,187349,3724,231091,75696,306787,119345,158239,124682,117753,82297,51043,153556,126896,881.0,60.0
Haryana,Karnal,29.703200647249204,76.87488025889972,74,1505324,797712,707612,978013,564516,413497,1341002,31650,2049,126207,532,1516,267223,11163,292682,135920,428602,155839,231354,188040,183590,124790,101387,238149,215989,887.0,65.0
Haryana,Kurukshetra,30.05652659846548,76.78774680306903,72,964655,510976,453679,646893,370828,276065,805175,15970,1943,140395,214,375,171908,7356,203553,88268,291821,94530,145392,118107,120790,81964,71007,152922,136321,888.0,67.0
Haryana,Mahendragarh,28.1352161458333,76.14018072916659,84,922088,486665,435423,630255,380440,249815,913251,5660,301,1737,75,644,135455,2624,223726,44216,267942,94273,135849,126291,132765,94245,60296,113329,74605,895.0,68.0
Haryana,Panchkula,30.700897142857134,76.97173238095236,69,561293,299679,261614,405318,229862,175456,490702,23451,2583,40951,1008,1626,103455,18615,70895,93656,164551,45607,73584,60177,69163,48306,83256,94560,77967,873.0,72.0
Haryana,Panipat,29.34352134146342,76.92895914634147,75,1205437,646857,558580,786599,464136,322463,1083936,86622,2261,25064,289,4647,209965,10024,173502,153804,327306,118873,170565,143466,141473,91756,75774,191098,176766,864.0,65.0
Haryana,Rewari,28.19164714828897,76.55956007604564,85,900332,474335,425997,636947,375453,261494,889133,5713,701,1804,202,1525,152651,5121,199449,69305,268754,81280,120860,122617,139646,95807,65143,134804,100436,898.0,71.0
Haryana,Rohtak,28.892517647058817,76.53123235294117,82,1061204,568479,492725,747582,436025,311557,1043887,8185,732,3916,200,3491,193120,8482,175203,131739,306942,117097,150903,140782,168499,109596,100346,174390,147990,867.0,70.0
Haryana,Sirsa,29.63583446327684,74.90970480225988,79,1295189,682582,612607,782897,456968,325929,940255,9524,2186,338962,370,2256,215527,6287,245476,93316,338792,141766,201349,153263,134559,83373,61620,216307,215371,897.0,60.0
Himachal Pradesh,Bilaspur,31.3780422907489,76.65316079295157,30,381956,192764,189192,287620,155599,132021,371973,6984,236,2387,113,10,79146,1574,152458,11987,164445,35817,59489,53515,64730,45695,25474,61113,56814,981.0,75.0
Himachal Pradesh,Bilaspur,31.3780422907489,76.65316079295157,406,2663629,1351574,1312055,1596560,932474,664086,2540763,57973,20745,6373,2979,2357,519704,8566,549632,188174,737806,382091,407692,337793,189296,152838,134637,135945,171271,971.0,60.0
Himachal Pradesh,Chamba,32.66741814595661,76.39354063116366,23,519080,261320,257760,323842,186064,137778,479782,32455,1559,2745,1740,57,96082,1615,186395,13836,200231,56272,96789,67653,64515,40440,15506,46292,52553,986.0,62.0
Himachal Pradesh,Hamirpur,31.67668481012659,76.49767088607594,28,454768,217070,237698,358091,180555,177536,449412,3711,243,591,95,293,104120,2521,196116,15232,211348,37327,71107,72114,91184,64363,35620,86909,93858,1095.0,79.0
Himachal Pradesh,Hamirpur,31.67668481012659,76.49767088607594,168,1104285,593537,510748,653299,408125,245174,1010014,91269,814,196,74,41,55929,1196,256081,55300,311381,159593,238344,211029,103334,59914,59612,120259,68771,861.0,59.0
Himachal Pradesh,Kangra,32.14093603238864,76.41205910931173,24,1510075,750591,759484,1152640,606443,546197,1461140,19797,3023,8929,14511,194,330081,8053,588321,39007,627328,127699,243617,223099,284124,192936,91236,229975,220258,1012.0,76.0
Himachal Pradesh,Kinnaur,31.60667184065933,78.51613736263741,34,84121,46249,37872,60699,36697,24002,64732,448,485,249,18086,29,17865,354,44514,0,44514,9400,13749,11437,11140,7871,5118,13902,13521,819.0,72.0
Himachal Pradesh,Kullu,31.90911922077925,77.40922649350647,26,437903,225452,212451,307672,174550,133122,415669,2974,1568,1396,15377,94,91322,2623,167995,20709,188704,48384,77363,61854,58122,39081,23168,66129,55831,942.0,70.0
Himachal Pradesh,Mandi,31.635805940594054,76.96556930693067,27,999777,498065,501712,723747,393669,330078,981412,9460,876,4081,2628,43,214491,5333,431129,31696,462825,100052,159043,132147,180188,128549,54139,175038,181985,1007.0,72.0
Himachal Pradesh,Shimla,31.155725451807253,77.62573042168668,33,814010,425039,388971,612642,342846,269796,791449,11810,2025,4047,3262,185,172754,9177,279269,95896,375165,69967,113536,113305,141490,95341,80414,153356,123535,915.0,75.0
Himachal Pradesh,Sirmaur,30.682764453961443,77.43184689507493,32,529855,276289,253566,362645,205617,157028,476830,33215,577,15501,2645,236,91509,2220,171102,21054,192156,57853,100123,78103,67080,38282,23352,74088,60246,918.0,68.0
Himachal Pradesh,Solan,31.03864311926604,76.94442140672783,31,580320,308754,271566,428578,244372,184206,548579,14678,1452,13926,574,591,119866,5250,192787,51509,244296,50331,89407,83992,95232,59363,36803,105861,90587,880.0,74.0
Himachal Pradesh,Una,31.58330388349513,76.18353932038836,29,521173,263692,257481,399715,213281,186434,480138,14275,390,26009,56,70,105929,2412,185091,20126,205217,51838,87913,81256,105204,60626,32120,87268,66103,976.0,77.0
Jammu and Kashmir,Doda,33.359614675767915,76.07163720136518,16,409936,213641,196295,219083,138620,80463,187621,220614,472,422,21,22,61831,596,122267,11350,133617,43794,47350,62719,48359,31416,12647,26716,23060,919.0,53.0
Jammu and Kashmir,Jammu,32.713199095022645,74.8477520361991,21,1529958,813821,716137,1137135,641916,495219,1289240,107489,12104,114272,470,1987,294739,19905,254566,248043,502609,135391,185962,253542,261852,159257,146501,231365,162522,880.0,74.0
Jammu and Kashmir,Kargil,33.565994894894914,76.63675315315312,4,140802,77785,63017,86236,56301,29935,10341,108239,604,1171,20126,28,15824,235,40370,7774,48144,12732,19083,20874,16938,9826,3077,11887,17649,810.0,61.0
Jammu and Kashmir,Kathua,32.51781678321678,75.58901398601404,7,616435,326109,290326,389204,228499,160705,540063,64234,1828,9551,24,16,109422,1443,181374,33473,214847,69396,82715,106411,91522,47694,24330,47372,26033,890.0,63.0
Jammu and Kashmir,Pulwama,33.88414418604652,75.00921860465118,12,560440,293064,267376,293958,178326,115632,13840,535159,1109,9440,35,6,73629,1537,147520,21703,169223,36201,54808,73991,67368,40931,31286,61749,53836,912.0,52.0
Jammu and Kashmir,Punch,33.791241290322574,74.29593161290322,5,476835,251899,224936,261724,163333,98391,32604,431279,958,11188,83,10,62900,346,132139,15269,147408,55762,72024,69219,46062,29517,13962,19789,16586,893.0,55.0
Jammu and Kashmir,Srinagar,34.27312898550724,75.11021159420288,10,1236829,651124,585705,748584,431746,316838,42540,1177342,2746,12187,285,74,165403,16413,4518,257721,262239,88911,173309,178723,176409,132727,121856,164263,164002,900.0,61.0
Jammu and Kashmir,Udhampur,33.04770670731707,75.15286951219511,19,554985,296784,258201,322354,197543,124811,489044,59771,1962,3418,106,57,73999,1214,148664,34696,183360,58567,80129,86008,55024,29657,17345,21542,18063,870.0,58.0
Jharkhand,Bokaro,23.6814965034965,85.98398374125864,355,2062330,1072807,989523,1273520,759088,514432,1636460,241451,13730,4174,1890,2045,274726,9754,250312,258452,508764,242467,338861,342646,232434,154076,116396,149320,130956,922.0,62.0
Jharkhand,Chatra,24.11619945750453,84.93295804701627,347,1042886,533935,508951,510061,303902,206159,903179,116710,6565,888,35,129,27037,590,200974,14528,215502,200861,161729,102033,63670,35342,21697,31242,18298,953.0,49.0
Jharkhand,Deoghar,24.33070100755672,86.75697632241814,350,1492073,775022,717051,793538,489837,303701,1165140,302626,6027,143,188,282,130193,1944,257373,64337,321710,217460,266292,190171,96331,54419,43979,51685,42762,925.0,53.0
Jharkhand,Dhanbad,23.854509090909097,86.40372924901185,354,2684487,1405956,1278531,1722204,1014950,707254,2149480,431762,11243,9727,331,1268,427173,11568,258764,405455,664219,317918,501453,449506,305054,186697,107382,224918,198464,909.0,64.0
Jharkhand,Dumka,24.275006125574265,87.27662450229711,362,1321442,668514,652928,672409,406275,266134,1044726,106865,86404,234,267,162,62110,1193,303697,23281,326978,229157,229259,149009,69525,38383,25593,28625,26873,977.0,51.0
Jharkhand,Garhwa,24.082114689265527,83.68664265536722,346,1322784,683575,639209,653476,405161,248315,1104475,194680,17168,123,371,20,29373,565,272872,19180,292052,207665,195565,147446,87844,46882,28144,37316,18018,935.0,49.0
Jharkhand,Giridih,24.30578509874329,86.08710915619386,349,2445474,1258098,1187376,1253475,783736,469739,1856202,508586,14645,937,650,1503,125431,1944,452564,46886,499450,503261,443980,261309,146464,77540,55122,65411,42269,944.0,51.0
Jharkhand,Godda,24.8189,87.2941735483871,351,1313551,677927,635624,604519,376212,228307,937126,289182,37795,97,128,115,43230,874,276454,15576,292030,217607,190777,126766,79430,47395,30870,35837,26348,938.0,46.0
Jharkhand,Gumla,23.078532948929148,84.55056787479396,366,1025213,514390,510823,559720,321795,237925,309563,51429,202449,221,531,23,31687,831,216629,16445,233074,136719,242580,182260,82114,45613,23742,19181,19545,993.0,55.0
Jharkhand,Jamtara,23.97873318077801,86.95325080091534,363,791042,404830,386212,426312,258260,168052,550560,164406,4419,520,118,783,49419,808,165555,20113,185668,131150,132014,85745,40613,22995,14802,17759,14710,954.0,54.0
Jharkhand,Latehar,23.72511185840708,84.48298743362837,359,726978,369666,357312,350682,209706,140976,473049,69808,47653,120,128,16,38194,340,146377,14137,160514,109491,121529,88787,46142,23885,13956,16406,14317,967.0,48.0
Jharkhand,Lohardaga,23.488796043165483,84.6605169064748,356,461790,232629,229161,259707,149568,110139,112378,95012,16770,51,33,15,28769,351,96759,14725,111484,82873,84920,63545,38503,21987,13847,16335,13613,985.0,56.0
Jharkhand,Pakur,24.57260428082189,87.69691969178076,353,900422,452661,447761,352881,206989,145892,410127,322963,75865,356,283,222,31414,328,200588,16587,217175,100367,133770,79045,29934,15700,9822,15762,18395,989.0,39.0
Jharkhand,Palamu,24.196925968109337,84.20310842824594,358,1939869,1006302,933567,1024563,621706,402857,1683169,238295,6164,734,188,284,68238,2155,355529,52375,407904,303053,296937,231565,160964,100290,63595,82133,46445,928.0,53.0
Jharkhand,Ranchi,23.184235061391547,85.31781937244203,364,2914253,1494937,1419316,1911433,1085244,826189,1612239,410759,193974,4826,932,2733,350908,22538,420740,310242,730982,361522,547583,495515,370847,247237,195181,237057,227932,949.0,66.0
Jharkhand,Sahibganj,24.93667989690721,87.68264097938142,352,1150567,589391,561176,483263,287303,195960,628044,398243,83208,198,245,125,34879,591,223450,37543,260993,146399,171416,110822,52248,28087,19832,35220,34451,952.0,42.0
Jharkhand,Simdega,22.608760391198054,84.59193691931536,367,599578,300309,299269,343483,191991,151492,201524,15103,306601,51,753,114,16865,423,144169,11114,155283,82317,130068,97580,47836,24842,13674,9228,9547,997.0,57.0
Karnataka,Bagalkot,16.15860676328503,75.64526070853468,556,1889752,950111,939641,1113412,641388,472024,1634229,219991,3433,443,412,25198,301389,3745,324799,165858,490657,242336,385986,147397,171505,115095,82319,272956,66813,989.0,59.0
Karnataka,Bangalore Rural,12.936827087794448,77.47369314775169,583,990923,509172,481751,688749,385311,303438,890429,92252,5368,389,272,1045,214253,3729,231052,95410,326462,100770,168165,126285,166677,82235,51015,201156,179589,946.0,70.0
Karnataka,Belgaum,16.16107219152853,74.72329042357275,555,4779661,2423063,2356598,3052032,1725548,1326484,4038331,528412,18418,2037,1086,178310,808827,17560,962777,356198,1318975,544564,1057297,609600,532584,279583,201884,779974,316225,973.0,64.0
Karnataka,Bellary,15.074377548209377,76.47228471074374,565,2452595,1236954,1215641,1421621,813440,608181,2103633,320834,14014,1029,284,8044,440374,9626,371604,251876,623480,275785,529576,219702,203139,121453,89475,417150,156110,983.0,58.0
Karnataka,Bidar,17.950361730769224,77.19459961538459,558,1703300,870665,832635,1042673,597198,445475,1289709,335184,35438,1145,30453,680,271439,3971,287134,102269,389403,188998,474921,194233,181076,105347,54900,214601,72805,956.0,61.0
Karnataka,Bijapur,16.84015316666667,75.95909166666665,417,255230,128663,126567,86919,54076,32843,245151,1617,2709,68,1649,15,12516,117,50449,7942,58391,25597,22787,14170,7192,6755,3421,7780,2843,984.0,34.0
Karnataka,Bijapur,16.84015316666667,75.95909166666665,557,2177331,1111022,1066309,1248268,730566,517702,1786830,369588,2433,558,374,8665,326594,4987,396449,131041,527490,246391,430477,143199,182756,129109,96990,297164,73300,960.0,57.0
Karnataka,Chikmagalur,13.425288289676422,75.67626502311249,570,1137961,566622,571339,818345,438257,380088,1004553,101235,26000,182,109,4710,238505,4510,311660,80766,392426,114570,257550,160083,177585,96470,72420,246504,167369,1008.0,72.0
Karnataka,Chitradurga,14.29102220394736,76.57821957236843,566,1659456,840843,818613,1087392,607188,480204,1520553,128751,3175,322,84,3778,307257,5711,349704,97644,447348,188329,332648,196470,217567,132435,75262,270699,107142,974.0,66.0
Karnataka,Davanagere,14.330414586709884,75.91723841166937,567,1945497,986400,959097,1308540,720637,587903,1658465,265805,5420,307,164,6417,372671,7320,354680,176011,530691,242130,446793,206686,269748,154781,123863,353628,188046,972.0,67.0
Karnataka,Dharwad,15.343831376975173,75.13831264108359,562,1847023,937206,909817,1301664,711776,589888,1390020,386834,28747,1486,715,29037,347962,15013,199707,283397,483104,252596,383041,185530,227113,143453,137768,349008,212091,971.0,70.0
Karnataka,Gadag,15.507128256880746,75.64861302752298,561,1064570,537147,527423,700177,397178,302999,907750,143665,3432,231,79,5993,198064,3373,180066,111906,291972,121615,244640,112703,105150,63816,42053,191541,45668,982.0,66.0
Karnataka,Gulbarga,17.070459515951594,76.87503850385033,579,2566326,1301755,1264571,1427368,828359,599009,2011014,513125,8344,826,9589,4865,404767,9752,400704,199303,600007,177860,579057,270622,290570,153746,104256,340251,118792,971.0,56.0
Karnataka,Hassan,12.945098749999998,76.11049549999997,574,1776421,883667,892754,1225256,668836,556420,1630814,120011,15611,289,623,5820,400702,4851,496103,132878,628981,182255,354480,232531,292369,147837,103152,403052,171212,1010.0,69.0
Karnataka,Haveri,14.737582809224318,75.3961230607966,564,1597668,819128,778540,1085443,603793,481650,1281878,297927,2406,419,68,9834,295937,2456,315076,98488,413564,240925,430529,201965,158442,84357,55310,288495,121420,950.0,68.0
Karnataka,Kodagu,12.39684468085106,75.79336595744688,576,554519,274608,279911,412877,215302,197575,448986,87274,17130,139,126,250,113931,3308,181182,31792,212974,51287,111562,75291,86232,54939,43225,125535,112626,1019.0,74.0
Karnataka,Kolar,13.312799881235172,78.01376947743476,581,1536401,776396,760005,1016219,564110,452109,1305431,199873,26722,253,150,2494,309494,5051,326567,151042,477609,138015,289841,228422,225498,107929,71422,242038,141675,979.0,66.0
Karnataka,Koppal,15.651253271028034,76.1617048598131,560,1389920,699926,689994,809085,468785,340300,1218024,161770,4081,296,85,2898,223166,2135,272968,64681,337649,222140,357098,127605,113028,72243,43967,218749,47931,986.0,58.0
Karnataka,Mandya,12.574901806239744,76.81570098522172,573,1805769,905085,900684,1149649,638668,510981,1712695,77801,8506,322,299,3607,391033,3367,458867,103435,562302,145178,309476,226552,308624,157839,102838,388674,159818,995.0,64.0
Karnataka,Mysore,12.248100259403367,76.52881802853437,577,3001127,1511600,1489527,1962180,1063766,898414,2631985,290549,39361,1255,16194,14419,640868,28397,540596,380386,920982,207091,537686,404565,452412,222230,212541,611989,378503,985.0,65.0
Karnataka,Raichur,16.050795353982295,76.87368606194688,559,1928812,964511,964301,979769,577213,402556,1634062,272022,10394,538,2265,4156,314547,5200,330446,125402,455848,147743,385673,163709,153346,82082,50463,286629,74326,1000.0,51.0
Karnataka,Shimoga,14.063845885634592,75.17882078103197,568,1752753,877415,875338,1263016,674938,588078,1479424,234664,26521,400,120,9234,363835,8791,352444,201662,554106,191641,385978,292481,251095,132138,111753,369749,286129,998.0,72.0
Karnataka,Tumkur,13.592467760074973,77.02297966260545,571,2678980,1350594,1328386,1813391,1006024,807367,2413812,245923,9130,477,187,5067,562769,7971,685443,204799,890242,270373,500593,386998,423738,213588,143735,519944,206821,984.0,68.0
Karnataka,Udupi,13.450404228534568,74.72009990316337,569,1177361,562131,615230,926429,465704,460725,1009179,96740,65838,232,161,4534,224814,9070,269817,115572,385389,142493,286193,176260,178094,109663,107279,229830,214808,1094.0,79.0
Kerala,Alappuzha,9.542602965599087,76.38010796263319,598,2127789,1013142,1114647,1852797,890552,962245,1460447,224545,435056,268,146,74,507913,28842,331419,392117,723536,133039,334339,418953,573306,274789,198858,445638,490935,1100.0,87.0
Kerala,Ernakulam,10.004879301987431,76.26957729035381,595,3282388,1619557,1662831,2855676,1425723,1429953,1509557,514397,1248137,860,614,1176,771287,88737,369694,804997,1174691,212263,446380,554817,702511,389793,429880,739614,774743,1027.0,87.0
Kerala,Idukki,9.80480963855423,77.04586641566264,596,1108974,552808,556166,923010,471881,451129,541854,82206,481507,100,189,44,244844,8250,391610,20823,412433,79149,166604,209398,261237,136428,86136,203816,246878,1006.0,83.0
Kerala,Kannur,11.941523076923056,75.35209891725934,589,2523003,1181446,1341557,2138434,1012956,1125478,1509592,742483,262526,424,1118,193,511167,32653,306288,566191,872479,204713,487016,491844,540383,308670,217203,497016,530436,1136.0,85.0
Kerala,Kasaragod,12.33310309912974,75.07768497134369,588,1307375,628613,678762,1037492,516476,521016,729987,486913,87454,151,362,130,237670,10378,251641,166164,417805,115476,268084,230416,238900,122657,76192,236961,245747,1080.0,79.0
Kerala,Kollam,8.929388820570157,76.6360775852431,600,2635375,1246968,1388407,2240273,1074345,1165928,1697635,508500,421598,208,272,63,630767,31542,523715,401415,925130,172247,406592,562529,595191,307950,233402,532705,626758,1113.0,85.0
Kerala,Kottayam,9.643701174068417,76.46059673302705,597,1974551,968289,1006262,1749798,861592,888206,983598,126499,858608,204,358,83,464039,37849,481967,196194,678161,117681,271496,373998,475724,280720,221350,416985,464124,1039.0,89.0
Kerala,Kozhikode,11.392924270557026,75.71158720159153,591,3086293,1470942,1615351,2615443,1266939,1348504,1734958,1211131,131516,297,235,601,641660,36791,323793,666543,990336,247996,564392,647221,630818,351267,250117,613671,668842,1098.0,85.0
Kerala,Malappuram,10.97329875666072,75.93910775606876,592,4112920,1960328,2152592,3311315,1597404,1713911,1135259,2888849,81556,205,179,68,730119,27909,634543,522586,1157129,415601,770417,814285,933793,392867,203779,692169,754074,1098.0,81.0
Kerala,Palakkad,10.784926903553291,76.49980490693744,593,2809934,1359478,1450456,2239492,1122600,1116892,1875980,812936,114397,220,238,78,587583,27162,665899,228442,894341,249198,492864,608176,572412,232109,180540,511877,564142,1067.0,80.0
Kerala,Thiruvananthapuram,8.537101759082221,76.88711502868073,601,3301427,1581678,1719749,2785408,1354857,1430551,2194057,452915,630573,404,301,76,783872,71621,559293,609824,1169117,206328,460690,642470,682156,389161,381782,613196,780821,1087.0,84.0
Kerala,Thrissur,10.458932647907687,76.12321940836945,594,3121200,1480763,1640437,2678548,1282261,1396287,1823442,532839,757484,259,278,62,721625,56148,336748,715119,1051867,222627,445696,524387,821831,362657,338600,712186,727823,1108.0,86.0
Kerala,Wayanad,11.715277464788736,76.07587007042254,590,817420,401684,415736,645585,328136,317449,404460,234185,174453,61,312,1797,149864,4712,266183,11805,277988,65326,144896,137227,184266,87042,51111,146524,170170,1035.0,79.0
Madhya Pradesh,Anuppur,23.18184220430107,81.86560000000007,461,749237,379114,370123,436595,254120,182475,686524,21473,2132,606,86,1653,81338,1290,147388,60325,207713,113208,115716,93450,58536,42743,31646,35107,29828,976.0,58.0
Madhya Pradesh,Ashoknagar,24.63098846153845,77.82974493927134,459,845071,443837,401234,469109,290304,178805,778214,40707,635,8009,1352,15094,84720,619,169606,37135,206741,148647,117053,62802,51499,29551,22791,87957,26227,904.0,56.0
Madhya Pradesh,Balaghat,21.80020720640569,80.42170053380796,457,1701698,842178,859520,1147623,626468,521155,1519384,38542,5295,1050,72162,4778,277927,1712,400074,70793,470867,290699,312640,235251,168635,126308,74213,178778,73522,1021.0,67.0
Madhya Pradesh,Barwani,21.702135714285724,74.91004719710673,441,1385881,699340,686541,549926,313642,236284,1318869,58222,2967,2361,416,2289,181139,1158,250358,48912,299270,157337,137116,74067,59100,42649,30754,95231,45979,982.0,40.0
Madhya Pradesh,Betul,21.964626315789477,77.7873428189117,447,1575362,799236,776126,939769,529783,409986,1505745,37590,3271,1078,9651,3759,230974,2109,318945,87704,406649,239114,232532,176325,140402,105696,82761,184872,81190,971.0,60.0
Madhya Pradesh,Bhind,26.35951126187245,78.7618324287653,420,1703005,926843,776162,1094917,676513,418404,1595400,66776,973,4047,12215,19950,107819,1166,271211,88385,359596,202629,261162,199044,140743,96011,50222,181907,68734,837.0,64.0
Madhya Pradesh,Bhopal,23.480726143790854,77.39246623093679,444,2371061,1236130,1134931,1660690,920314,740376,1755861,525434,23432,10789,21688,25950,452912,40788,118893,581826,700719,229082,303171,287198,211371,178165,266618,420371,352351,918.0,70.0
Madhya Pradesh,Burhanpur,21.364567254408065,76.24460478589425,467,757847,388504,369343,408679,233073,175606,552526,180840,1199,1074,19883,1884,112420,986,115979,62861,178840,107547,119468,69765,57058,42618,28237,110403,50613,951.0,54.0
Madhya Pradesh,Chhatarpur,24.813637376460004,79.56449299191374,425,1762375,936121,826254,943033,572010,371023,1676918,70351,1980,968,250,10409,176056,1880,375869,95048,470917,270951,236054,160310,112961,77787,59704,120424,56851,883.0,54.0
Madhya Pradesh,Chhindwara,22.227966971713823,78.76413136439254,455,2090922,1064468,1026454,1294198,731294,562904,1923920,100692,4893,2258,24471,7830,344875,3588,413142,140802,553944,284113,336391,225747,215098,167946,112383,245014,111901,964.0,62.0
Madhya Pradesh,Damoh,23.76624407960196,79.47049303482588,428,1264219,661873,602346,747715,445737,301978,1186420,47966,1681,1096,119,25005,187731,1432,303387,66514,369901,197917,217296,150040,95032,64414,41158,90156,43355,910.0,59.0
Madhya Pradesh,Datia,25.90226439560441,78.63916571428574,422,786754,420157,366597,491445,303815,187630,747693,28483,683,490,7923,453,97696,616,160453,43401,203854,132176,131372,88949,73398,48978,34853,90102,35209,873.0,62.0
Madhya Pradesh,Dewas,22.7851110021322,76.46088805970157,437,1563715,805359,758356,925369,550716,374653,1376591,174259,2355,2330,382,6497,270457,3518,274995,101014,376009,242508,225380,149522,125772,94403,55383,193157,112895,942.0,59.0
Madhya Pradesh,Dhar,22.572681718963157,75.1105620736698,438,2185793,1112725,1073068,1077338,638479,438859,2051219,116202,2261,1607,328,12199,349639,2388,412348,103364,515712,262090,244058,164576,134279,99882,66721,198890,126246,964.0,49.0
Madhya Pradesh,Dindori,22.83738437047757,81.04332966714911,453,704524,351913,352611,378714,222759,155955,605435,6736,4238,260,61,687,62372,554,218021,9774,227795,103002,113875,84065,49277,31104,15179,12242,9945,1002.0,54.0
Madhya Pradesh,Guna,24.49043927178156,77.2235895968791,458,1241519,649362,592157,653980,400537,253443,1172248,49203,1208,3271,529,13474,144248,2482,212765,72320,285085,197902,157141,84560,79924,50724,42147,118411,47903,912.0,53.0
Madhya Pradesh,Gwalior,26.04074441964285,78.12782433035713,421,2032036,1090327,941709,1357210,803114,554096,1835299,141735,4119,24790,4361,18058,306859,15779,172720,272172,444892,235648,235924,204871,193082,166719,193947,278747,221052,864.0,67.0
Madhya Pradesh,Harda,22.227659781121783,77.07022571819435,448,570465,294838,275627,352550,203807,148743,527462,38640,683,676,93,1573,95066,986,112714,31845,144559,90059,87733,60757,46556,31939,27126,71326,51766,935.0,62.0
Madhya Pradesh,Hoshangabad,22.595268801996703,78.02168094841929,449,1241350,648725,592625,810644,469199,341445,1175203,52269,4453,3127,1550,3888,198076,2871,209650,105746,315396,159703,183156,145076,119682,89589,84769,166373,122069,914.0,65.0
Madhya Pradesh,Indore,22.680265752128648,75.9133801324502,439,3276697,1699627,1577070,2309130,1289631,1019499,2728225,415142,18523,25696,11496,71667,593576,48691,200371,587947,788318,428413,472233,384611,362209,300076,382658,545277,480633,928.0,70.0
Madhya Pradesh,Jabalpur,23.18525572327043,79.98328754716981,451,2463289,1277278,1186011,1756468,980307,776161,2159065,203652,23142,13256,4320,33728,452023,20443,272284,352477,624761,267932,352284,313910,268333,222987,235072,326960,286802,929.0,71.0
Madhya Pradesh,Jhabua,22.419578015397768,74.40921616766468,464,1025048,515023,510025,352081,214582,137499,960925,15733,38423,141,65,8871,125411,744,211080,24713,235793,98308,79781,40466,38236,28990,20240,46247,24293,990.0,34.0
Madhya Pradesh,Katni,23.724416229116937,80.33819665871127,450,1292042,662013,630029,790773,460583,330190,1240650,37232,3158,1167,157,5342,172416,2179,276151,72880,349031,198447,207366,161727,112242,80935,53578,74604,56180,952.0,61.0
Madhya Pradesh,Mandla,22.70348712446353,80.38600543633753,454,1054905,525272,529633,604962,348033,256929,849518,16558,12450,436,297,1789,143803,912,279674,37258,316932,156711,170994,115632,82166,58066,35476,41648,33217,1008.0,57.0
Madhya Pradesh,Mandsaur,24.19278764044944,75.43588667736759,433,1340411,682851,657560,834591,502898,331693,1192588,125548,1120,849,242,19029,239885,2324,302287,81832,384119,244891,217234,149219,109751,77219,52546,137166,68287,963.0,62.0
Madhya Pradesh,Morena,26.37313504531724,77.88447341389724,419,1965970,1068417,897553,1179685,747652,432033,1875495,76159,1092,557,3234,6681,131486,1781,319298,95288,414586,288979,285682,228234,170254,115790,71005,183336,75574,840.0,60.0
Madhya Pradesh,Neemuch,24.70311893333336,75.06608186666664,432,826067,422653,403414,508834,307889,200945,741288,67324,1508,1110,224,14165,145258,1945,174235,67962,242197,137656,127167,83189,69134,53465,42343,81157,46190,954.0,62.0
Madhya Pradesh,Panna,24.451325840092657,80.21133001158752,426,1016520,533480,483040,552559,332140,220419,974748,35214,418,186,37,4734,76097,653,256744,32179,288923,171707,134936,99251,70359,47903,29795,46827,23811,905.0,54.0
Madhya Pradesh,Raisen,23.292518206521724,78.16305495923909,446,1331597,700358,631239,820220,479093,341127,1195235,120331,1725,2262,253,10637,194373,1141,251272,74441,325713,237981,210402,144108,117908,69419,48384,153849,82664,901.0,62.0
Madhya Pradesh,Rajgarh,23.785499026425583,76.66431223922116,442,1545814,790212,755602,804245,488797,315448,1433879,106928,1243,460,121,1599,231130,1611,331894,69823,401717,239738,174381,103464,96386,72316,51499,146783,54463,956.0,52.0
Madhya Pradesh,Ratlam,23.503562290502792,75.14895782122909,434,1455069,738241,716828,825880,485090,340790,1267043,151071,3996,1353,175,29353,213825,3644,266716,107151,373867,224715,194131,129392,111461,86507,67192,151425,96263,971.0,57.0
Madhya Pradesh,Rewa,24.861184625158856,81.57572465057183,430,2365106,1225100,1140006,1441757,845572,596185,2268838,85414,1964,832,986,655,251132,3406,523910,94489,618399,344362,330131,312931,206274,180635,122371,113424,126470,931.0,61.0
Madhya Pradesh,Sagar,23.800318709677374,78.71940357771273,427,2378458,1256257,1122201,1545719,908607,637112,2198297,103480,5580,4146,991,62992,366494,4546,448408,165507,613915,347752,426916,297079,214137,137899,116753,251779,127876,893.0,65.0
Madhya Pradesh,Satna,24.62777621776502,80.75547048710598,429,2228935,1157495,1071440,1371781,801051,570730,2158623,59471,2228,1163,364,3135,294702,3754,461831,114173,576004,338947,334635,309536,197373,148091,105499,120969,142613,926.0,62.0
Madhya Pradesh,Sehore,22.9297199679658,77.06780202883085,445,1311332,683743,627589,780362,469208,311154,1163607,137980,1404,640,357,6232,212138,1566,270427,59220,329647,193885,179388,136284,120687,77541,50655,144152,80229,918.0,60.0
Madhya Pradesh,Seoni,22.33230487804874,79.66053863928111,456,1379131,695879,683252,864194,485341,378853,1145052,79739,1857,360,7288,4982,228695,1182,335045,47542,382587,223650,241327,151636,116124,84398,55984,112129,68267,982.0,63.0
Madhya Pradesh,Shahdol,23.44859864559819,81.4596831828442,460,1066063,540021,526042,604194,348761,255433,997073,42426,2372,912,268,1737,113184,1733,233594,57846,291440,161972,154282,128427,80402,60915,46513,45831,43590,974.0,57.0
Madhya Pradesh,Shajapur,23.566620317220547,76.33555181268885,436,1512681,780520,732161,894612,543509,351103,1321003,174724,815,631,179,13755,232735,1382,312611,73997,386608,271215,239081,141225,111366,75967,48671,164788,68975,938.0,59.0
Madhya Pradesh,Sheopur,25.78014810996563,77.16911116838484,418,687861,361784,326077,328025,208201,119824,638702,41396,230,6387,201,379,74770,273,150146,26376,176522,90911,70840,43009,37072,24732,17091,38510,18710,901.0,48.0
Madhya Pradesh,Shivpuri,25.37802451874367,77.74861600810549,423,1726050,919795,806255,900846,573242,327604,1648749,51200,1117,7151,3421,12171,148128,1852,367859,66759,434618,261087,214162,125117,84684,58509,44812,111617,52090,877.0,52.0
Madhya Pradesh,Sidhi,24.17547189952905,82.1053783359498,462,1127033,575912,551121,600785,353030,247755,1077545,34419,511,128,92,93,102228,837,250953,25916,276869,185550,168224,129344,80312,60845,33067,27536,17833,957.0,53.0
Madhya Pradesh,Tikamgarh,25.14099852104666,78.89357064846428,424,1445166,760355,684811,747940,459353,288587,1383475,44143,588,251,109,15569,132725,1090,322772,60220,382992,202448,188694,143231,78053,58245,35034,95728,30506,901.0,52.0
Madhya Pradesh,Ujjain,23.319288862745065,75.80383717647058,435,1986864,1016289,970575,1240990,730817,510173,1718204,233133,4659,3241,945,24622,323379,7501,300765,188684,489449,286534,280030,178295,159263,119586,111290,260973,165304,955.0,62.0
Madhya Pradesh,Umaria,23.59601063063061,80.90879477477475,431,644758,330674,314084,356672,210907,145765,620515,15966,667,190,70,220,67975,839,138100,29966,168066,90791,94011,74854,43418,27216,18144,23450,19781,950.0,55.0
Madhya Pradesh,Vidisha,23.82838307984792,77.9013507604563,443,1458875,769568,689307,862918,512344,350574,1287391,149548,1313,914,295,18490,181510,1926,292579,83830,376409,242021,214603,123650,104007,65581,59814,190365,73505,896.0,59.0
Maharashtra,Akola,20.746310479041902,77.12122320359276,501,1813906,932334,881572,1411281,758977,652304,1107809,357253,4483,1504,328033,10205,314490,6163,308158,196077,504235,231841,328367,275264,291391,205723,112574,342367,180311,946.0,78.0
Maharashtra,Amravati,21.16520991810736,77.67583503184723,503,2888445,1480768,1407677,2251875,1207104,1044771,2055177,421410,7223,2242,383891,11360,512492,9438,508921,272894,781815,326195,468853,463051,525116,346876,203273,553087,342031,951.0,78.0
Maharashtra,Aurangabad,20.0979228832952,75.32072196796334,235,2540073,1318684,1221389,1466002,868733,597269,2291133,237353,2218,295,334,775,44456,2362,428291,49006,477297,559512,482199,302662,253142,136783,91371,166509,84329,926.0,58.0
Maharashtra,Aurangabad,20.0979228832952,75.32072196796334,515,3701282,1924469,1776813,2503837,1430936,1072901,2545438,786677,15991,5142,309093,30981,589477,23258,551789,427343,979132,381695,686271,422964,537936,310762,253253,616355,360410,923.0,68.0
Maharashtra,Bhandara,21.211792649727748,80.10950199637024,506,1200334,605520,594814,899860,488709,411151,1009352,26502,2145,831,154458,1017,227025,2932,283843,72575,356418,115150,187870,208902,204435,153749,67061,207488,168707,982.0,75.0
Maharashtra,Bid,18.952353340080982,75.69319706477731,523,2585049,1349106,1235943,1718507,987185,731322,2174672,320395,2097,824,68482,8719,402052,5614,563114,135457,698571,309704,436446,280800,316758,206530,129996,374363,136943,916.0,66.0
Maharashtra,Buldana,20.56680611183355,76.39017880364096,500,2586258,1337560,1248698,1879874,1048892,830982,1845424,354236,3531,1668,364229,12242,423036,4767,575405,152787,728192,315408,457067,400342,406379,228266,113783,451231,195038,934.0,73.0
Maharashtra,Chandrapur,20.095609090909075,79.31556380471388,509,2204307,1123834,1080473,1578615,872565,706050,1780085,92297,10701,5251,286734,3861,418666,8239,451324,233331,684655,243773,316192,337320,351610,241179,126488,409521,229471,961.0,72.0
Maharashtra,Dhule,21.274018690400517,74.58719071837263,498,2050862,1054031,996831,1293916,723388,570528,1825460,187901,3653,1422,13405,12818,315332,6065,382777,146013,528790,200494,323641,208571,290656,182739,114931,324594,127610,946.0,63.0
Maharashtra,Gondiya,21.225008411214997,80.17522698598128,507,1322507,661554,660953,1004243,542837,461406,1153861,26157,1827,2160,125282,1568,239981,2866,319702,66813,386515,138457,237888,231153,225595,159570,57923,174150,151792,999.0,76.0
Maharashtra,Hingoli,19.59525302245251,77.09239412780653,512,1177345,606294,571051,790743,450551,340192,863199,127552,992,643,176679,5278,159114,1221,242456,41913,284369,175736,266649,127246,136075,74544,38698,180484,73460,942.0,67.0
Maharashtra,Jalgaon,20.8828943415638,75.55140421810695,499,4229917,2197365,2032552,2891882,1629223,1262659,3457615,560261,7091,3091,143865,27404,720791,14297,796223,373565,1169788,482462,735730,532587,627198,375643,229987,764674,316969,925.0,68.0
Maharashtra,Jalna,19.984612534818933,75.98473607242339,514,1959046,1011473,947573,1195523,699428,496095,1504641,274221,12542,1629,152540,9619,288895,3791,404746,98084,502830,271061,422207,218189,225331,120715,64060,301447,141841,937.0,61.0
Maharashtra,Kolhapur,16.44881301587301,74.12897150793648,530,3876001,1980658,1895343,2825845,1559760,1266085,3379906,286558,15573,1570,29766,154882,770005,22269,796496,382818,1179314,321457,622362,487227,698604,395234,335413,771669,612194,957.0,73.0
Maharashtra,Latur,18.348687268993856,76.75812607802874,524,2454196,1273140,1181056,1650672,932432,718240,2006984,367664,2387,935,66535,6387,381722,6217,428616,157016,585632,268627,423711,296910,380344,224998,153256,380772,178478,928.0,67.0
Maharashtra,Nagpur,21.196556862745105,79.02166176470584,505,4653570,2384975,2268595,3673808,1959220,1714588,3492202,390974,34667,20469,668050,24528,917626,57964,430844,877522,1308366,325084,666693,812381,790443,542228,493236,914291,753520,951.0,79.0
Maharashtra,Nanded,19.209316983017,77.6829048951049,511,3361292,1730075,1631217,2189425,1255222,934203,2501741,471951,3902,13540,354189,5049,488748,7548,591119,230563,821682,416869,691348,368723,416761,255650,156225,505657,217163,943.0,65.0
Maharashtra,Nandurbar,21.523175625248147,74.32638757443429,497,1648295,833170,815125,906509,512099,394410,1521618,96182,8467,685,4969,6191,186202,2579,333440,71572,405012,166664,218718,121404,160961,113019,58461,209973,91574,978.0,55.0
Maharashtra,Nashik,20.266912871287143,74.03824168316828,516,6107187,3157186,2950001,4345366,2397538,1947828,5237009,693052,23946,8912,94783,38212,904710,45039,904661,764271,1668932,544346,1038955,851714,830070,485052,373100,1000293,551864,934.0,71.0
Maharashtra,Osmanabad,18.19459456066944,75.99495575313809,525,1657576,861535,796041,1137810,644304,493506,1437623,178925,942,340,28216,4530,240042,3209,367158,77832,444990,183972,300965,201646,260772,139479,96847,271812,96586,924.0,69.0
Maharashtra,Parbhani,19.31032425249168,76.70163338870431,513,1836086,942870,893216,1157814,666291,491523,1328385,306364,2081,1371,187899,6238,272486,3982,293480,133759,427239,229217,396713,204316,229103,116041,81333,270114,103819,947.0,63.0
Maharashtra,Pune,18.51696171428573,74.12922881632647,521,9429408,4924105,4505303,7171723,3940210,3231513,8090254,673704,134192,27090,340404,127786,1925019,235018,1165718,2056739,3222457,559840,1234549,1383055,1414563,867256,1086650,1915302,1531966,915.0,76.0
Maharashtra,Raigarh,18.453257637845976,73.0090609418579,403,1493984,750278,743706,951639,542756,408883,1422986,17332,47653,2117,781,409,297308,3342,354278,66638,420916,246480,260661,210964,130700,93340,66358,50603,69909,991.0,64.0
Maharashtra,Raigarh,18.453257637845976,73.0090609418579,520,2634200,1344345,1289855,1939994,1059692,880302,2239370,227465,17452,7477,121791,12260,547206,38570,581868,377160,959028,231263,407662,335886,441072,221410,204507,547214,369857,959.0,74.0
Maharashtra,Ratnagiri,17.210195070127703,73.25725893866404,528,1615069,761121,853948,1199392,619012,580380,1307211,187197,1990,230,113467,3347,367352,7752,538538,100824,639362,163025,378554,269872,247257,111600,65700,348019,273162,1122.0,74.0
Maharashtra,Sangli,17.154930181086502,74.70713822937628,531,2822143,1435728,1386415,2049467,1121550,927917,2440312,239607,9098,1260,38210,87453,485126,13212,626872,226801,853673,208511,507318,459156,453404,244804,214003,517310,380072,966.0,73.0
Maharashtra,Satara,17.6737908974359,74.18052064102558,527,3003741,1510842,1492899,2225694,1201034,1024660,2691952,146970,4408,1182,141315,12810,562653,14093,774522,200949,975471,288427,495822,407977,556706,299993,243457,575804,455235,988.0,74.0
Maharashtra,Sindhudurg,16.170948049777163,73.51329008172343,529,849651,417332,432319,666067,348289,317778,780384,26264,15471,219,24762,1046,194228,3517,295847,44989,340836,86480,165284,134734,175070,89023,48418,181343,155696,1036.0,78.0
Maharashtra,Solapur,17.837357937584812,75.42394823609216,526,4317756,2227852,2089904,2910676,1651266,1259410,3795424,441254,9882,1279,35497,28134,595560,15145,779929,376302,1156231,390337,788150,535848,643327,328020,236302,698690,355107,938.0,67.0
Maharashtra,Thane,19.698767747440264,72.79882742564581,517,11060148,5865078,5195070,8227161,4591396,3635765,8716055,1355630,280700,39149,449617,172052,2231800,256170,713994,2904157,3618151,712171,1530916,1588196,1751284,1080597,961719,2207808,1627847,886.0,74.0
Maharashtra,Wardha,20.80743024390242,78.57259105691062,504,1300774,668385,632389,1019458,552617,466841,1057096,53854,2696,2147,175417,5663,266155,4313,268486,120218,388704,140470,186781,201471,225208,158055,93772,260962,171680,946.0,78.0
Maharashtra,Washim,20.282282394366213,77.25502394366208,502,1197160,620302,576858,869917,487703,382214,859949,142672,1707,518,179330,8476,196022,1875,274925,55921,330846,166509,238985,160331,162762,116032,47865,210412,87120,930.0,73.0
Maharashtra,Yavatmal,20.04258346738159,78.05326371760479,510,2772348,1419965,1352383,2022574,1115980,906594,2251401,239236,4567,1596,249874,11422,446516,6094,629243,168889,798132,391944,562739,382001,389924,245819,123074,508756,198454,952.0,73.0
Manipur,Bishnupur,24.50712111801243,93.8246236024845,275,237399,118782,118617,156333,87313,69020,175102,18691,4264,56,76,16,34364,676,34977,21172,56149,15941,36011,50004,31775,20077,20074,16508,41441,999.0,66.0
Manipur,Chandel,24.2635812987013,94.09443844155844,280,144182,74579,69603,90302,51053,39249,10810,3086,129049,136,400,59,18764,184,30377,3783,34160,17382,28163,30589,18971,12213,8105,11611,23065,933.0,63.0
Manipur,Churachandpur,24.30309718875504,93.38671506024085,274,274143,138820,135323,195935,104013,91922,12034,2886,254979,152,495,87,29894,837,52972,4853,57825,32860,67907,65475,38567,23284,14523,28742,41638,975.0,71.0
Manipur,Senapati,25.08465586034914,94.03366234413956,272,479148,247323,231825,264477,148012,116465,43833,1649,426819,140,2409,53,22798,256,38008,1826,39834,46757,81735,91395,62033,40438,24940,16321,29985,937.0,55.0
Manipur,Tamenglong,24.98312942238265,93.49450740072204,273,140651,72371,68280,85006,47403,37603,2995,589,134760,59,425,57,11541,125,23982,4119,28101,11155,28461,26794,17867,11645,7102,10189,17284,943.0,60.0
Manipur,Thoubal,24.545392553191498,93.97959893617023,276,422168,210845,211323,269304,152617,116687,267146,107323,4322,106,114,24,49507,880,65961,38302,104263,32396,69738,87932,55803,37899,28550,29742,78949,1002.0,64.0
Manipur,Ukhrul,25.05900314960629,94.44129566929138,279,183998,94718,89280,129829,70148,59681,7553,1115,174112,108,635,70,14026,276,36084,5806,41890,20670,29382,38350,31734,22729,15636,28568,29549,943.0,71.0
Meghalaya,East Garo Hills,25.82728228228228,90.64684924924916,294,317917,161223,156694,192147,102513,89634,17272,3359,289708,56,1004,38,24550,288,62698,11518,74216,51578,70679,52762,31328,9473,2484,7915,46851,972.0,60.0
Meghalaya,East Khasi Hills,25.303763888888884,91.75922519841272,298,825922,410749,415173,578030,287270,290760,144935,14185,543394,2495,3111,303,135941,5032,106248,108843,215091,118135,163729,127722,94579,58836,61639,109102,111335,1011.0,70.0
Meghalaya,Jaintia Hills,25.33959557069844,92.37608160136298,299,395124,196285,198839,187527,87371,100156,12456,1646,271596,34,284,45,41677,510,76546,7171,83717,67749,61526,34677,26748,13544,8039,45836,30960,1013.0,47.0
Meghalaya,South Garo Hills,25.240568578553614,90.64560349127176,295,142334,73170,69164,82062,45003,37059,7036,1050,132984,27,332,10,10940,179,35930,3713,39643,25906,28921,21506,13858,3998,826,2347,15916,945.0,58.0
Meghalaya,West Garo Hills,25.495285185185185,90.03709947089942,293,643291,324159,319132,358702,193438,165264,122936,106788,389956,209,3392,144,51301,1630,139351,18594,157945,85733,129178,90963,70941,29404,10856,21585,73800,984.0,56.0
Meghalaya,West Khasi Hills,25.500889926739926,91.25364542124538,296,383461,193715,189746,230678,117307,113371,6498,1533,366881,58,1313,38,32873,149,74832,12299,87131,80318,78208,45046,28417,12295,6450,15981,29492,980.0,60.0
Mizoram,Aizawl,23.90781335453101,92.85359459459472,283,400309,199270,201039,340595,169547,171048,13249,5264,379134,105,1570,76,79804,4019,20570,80341,100911,29332,68214,100103,78752,37701,31310,73761,80980,1009.0,85.0
Mizoram,Champhai,23.54166580976866,93.24221799485862,284,125745,63388,62357,100802,51440,49362,1075,699,123446,9,151,45,23948,186,18395,12717,31112,14491,31359,30454,16259,4956,4087,21158,24612,984.0,80.0
Mizoram,Kolasib,24.2020004347826,92.73470391304348,282,83955,42918,41037,65895,34147,31748,4000,4426,75210,16,108,2,14853,367,9669,12507,22176,11367,18046,20399,9849,3473,2530,11294,16632,956.0,78.0
Mizoram,Lawngtlai,22.36102843137253,92.66964156862753,287,117894,60599,57295,62861,36444,26417,1668,522,63892,52,51549,122,9283,162,21993,5273,27266,19890,21114,16629,10538,3763,2515,8506,15309,945.0,53.0
Mizoram,Lunglei,23.007717036172675,92.63512555425892,286,161428,82891,78537,121122,64515,56607,5231,1290,127124,74,27543,93,26394,482,21479,17315,38794,22181,33313,34774,19918,8503,5509,22896,28570,947.0,75.0
Mizoram,Mamit,23.73852942502819,92.4330803833147,281,86364,44828,41536,60191,32977,27214,2989,1782,69104,13,12328,25,12158,90,16726,4129,20855,9328,19711,19949,10756,3180,1771,8945,14784,927.0,70.0
Mizoram,Saiha,22.35744801061008,93.02827931034489,288,56574,28594,27980,42233,21861,20372,933,514,54977,11,102,4,7400,168,7043,5784,12827,8422,14151,12130,7269,3628,2204,7587,9981,979.0,75.0
Mizoram,Serchhip,23.263864705882344,92.914158496732,285,64937,32851,32086,54476,27598,26878,991,335,63444,6,60,9,12315,131,7472,8018,15490,8771,14985,16237,9062,2915,2128,11822,12317,977.0,84.0
Nagaland,Dimapur,25.814176811594223,93.75074057971014,265,378811,197394,181417,278037,150142,127895,108900,31212,234239,566,1270,2148,71413,3303,49116,62853,111969,34539,61815,80076,44343,26712,27532,69407,72398,919.0,73.0
Nagaland,Kohima,25.60311428571428,93.78600657596373,270,267988,138966,129022,197489,107038,90451,25496,4384,234955,998,1519,80,50724,1928,31845,44255,76100,21654,46756,57726,30518,19855,23439,43001,37427,928.0,74.0
Nagaland,Mokokchung,26.478911764705888,94.522426006192,262,194622,101092,93530,159494,83479,76015,9840,2057,181847,78,442,66,40154,537,37536,17742,55278,20259,43483,54035,27425,13077,10299,41293,41057,925.0,82.0
Nagaland,Mon,26.69207374301676,95.03072988826828,261,250260,131753,118507,119626,67432,52194,8102,3444,236494,84,1256,314,14398,178,43607,7415,51022,37431,46055,30500,7628,3565,1772,28073,27663,899.0,48.0
Nagaland,Phek,25.63272986577182,94.56814563758392,266,163418,83743,79675,105893,57926,47967,3563,950,158224,31,350,17,36182,170,38903,7295,46198,22494,32722,30434,12785,7268,5926,29897,29489,951.0,65.0
Nagaland,Tuensang,26.21104453280316,94.85809880715708,267,196596,101933,94663,117511,63653,53858,2979,1052,191864,27,572,5,24998,155,40690,9451,50141,29602,40900,33514,15013,6008,2760,30295,22080,929.0,60.0
Nagaland,Wokha,26.202611551155112,94.1990815181518,264,166343,84505,81838,128208,67385,60823,5605,2043,158236,34,318,8,25268,198,38499,8170,46669,15865,37024,41627,18746,10223,8030,29411,22108,968.0,77.0
Nagaland,Zunheboto,26.028178205128206,94.50026666666668,263,140757,71217,69540,102881,53504,49377,2580,772,136995,39,286,6,28846,261,31267,6044,37311,16523,30889,35113,17282,8821,5560,26285,22868,976.0,73.0
Orissa,Baleshwar,21.48570932311624,87.08085828011933,377,2320529,1185787,1134742,1621232,902359,718873,2197709,94254,6434,237,111,201,296834,7370,601154,82440,683594,342192,470502,416510,267354,112392,105962,99843,145565,957.0,70.0
Orissa,Bhadrak,20.95262735257214,86.81496204516931,378,1506337,760260,746077,1094140,596269,497871,1398543,104202,745,169,81,111,164636,2637,373862,54244,428106,210736,391081,297270,177013,71815,67536,58614,62233,981.0,73.0
Orissa,Cuttack,20.407640646029623,85.7776810228802,381,2624470,1352760,1271710,2011469,1103033,908436,2457729,141263,11985,1026,6276,1180,349587,15046,579529,210768,790297,289414,545514,513039,328319,159456,181601,189715,205665,940.0,77.0
Orissa,Dhenkanal,20.79887159353349,85.53226836027711,383,1192811,612593,580218,829910,464093,365817,1185542,4805,727,124,366,39,117172,1810,315390,36979,352369,188872,238599,193395,132002,53162,43064,43089,51080,947.0,70.0
Orissa,Gajapati,19.121080882352945,84.14015091911759,389,577817,282882,294935,262537,153663,108874,353160,1556,219482,53,2180,66,63112,635,152095,23050,175145,68405,76419,54787,36977,17084,12556,21818,23322,1043.0,45.0
Orissa,Ganjam,19.2632617564534,84.80297710437702,388,3529031,1779218,1749813,2210050,1262652,947398,3486059,13315,23975,590,174,170,405298,9049,795476,219918,1015394,518072,767140,508511,297490,121151,97147,170397,215821,983.0,63.0
Orissa,Jharsuguda,21.827058566978184,83.93581682242987,371,579505,296690,282815,405879,228092,177787,553587,12783,10462,1441,80,70,81433,2498,103224,73962,177186,69122,101541,103622,70928,32909,22010,34457,35184,953.0,70.0
Orissa,Kalahandi,19.784253092783523,83.1124043814433,395,1576869,787101,789768,802036,484177,317859,1555367,4975,11160,796,175,1225,91171,1953,456336,38412,494748,213426,225468,172905,94044,40383,27385,43839,47442,1003.0,51.0
Orissa,Kandhamal,20.092878624813142,84.02216352765326,390,733110,359945,373165,399786,233900,165886,580300,2138,148895,82,290,47,28736,768,218446,24489,242935,108606,145604,108773,48856,21351,14962,16664,19176,1037.0,55.0
Orissa,Kendrapara,20.606319815982264,86.83763247572003,379,1440361,717814,722547,1089265,579970,509295,1386792,50247,1423,169,62,52,173107,1628,414749,23494,438243,218444,357621,298557,203472,76449,75926,53594,58387,1007.0,76.0
Orissa,Khordha,20.054162322274863,85.52234834123229,386,2251673,1167137,1084536,1749936,957515,792421,2147632,84060,12527,1264,475,476,349860,35701,331834,356895,688729,276378,445785,436534,295099,177974,247498,230931,230413,929.0,78.0
Orissa,Koraput,18.82627794779476,82.81278469846964,398,1379647,678809,700838,568090,340843,227247,1294151,8850,68550,518,219,491,85766,3988,381789,78339,460128,158847,158653,98266,60589,32257,29000,74594,58682,1032.0,41.0
Orissa,Malkangiri,18.25227930367506,81.98293636363628,399,613192,303624,309568,244706,147001,97705,600219,1871,10039,213,43,195,24604,448,167884,15839,183723,60913,64683,44962,19031,8487,5585,14559,12839,1020.0,40.0
Orissa,Mayurbhanj,21.897621545157754,86.4030408052231,376,2519738,1256213,1263525,1369397,794171,575226,2113079,33706,15008,661,162,109,140189,2950,689110,64479,753589,283489,390037,385216,214921,92060,72847,61298,109355,1006.0,54.0
Orissa,Nayagarh,20.192895622119817,85.05614700460825,385,962789,502636,460153,688362,392333,296029,955754,5278,383,107,33,24,124984,1163,261646,26688,288334,174904,227102,177180,90089,36951,33148,30424,43798,915.0,71.0
Orissa,Nuapada,20.471309512195116,82.59152536585364,394,610382,301962,308420,299383,180903,118480,601092,4952,1778,724,76,905,43976,757,197258,11869,209127,64389,114394,73787,51886,19577,10131,15564,23219,1021.0,49.0
Orissa,Puri,19.83509174603177,85.86698989898981,387,1698730,865380,833350,1291939,704857,587082,1644905,46094,4239,193,243,94,201605,3416,402014,72210,474224,251520,413605,364098,179086,84374,87000,83906,87997,963.0,76.0
Orissa,Rayagada,19.292840020060204,83.45860120361095,396,967911,471960,495951,407735,241959,165776,874445,4607,84916,219,249,123,61543,1553,237343,49205,286548,84956,97387,73210,46001,21439,17681,38841,33500,1051.0,42.0
Orissa,Sambalpur,21.515752380952385,84.34958483245157,372,1041099,526877,514222,703691,393192,310499,964188,20120,50637,2506,310,86,126498,5231,220697,94798,315495,133005,185289,171876,108455,50705,45828,56306,56878,976.0,68.0
Orissa,Sundargarh,22.06354819277107,84.50524819277099,374,2093437,1061147,1032290,1342322,750147,592175,1532352,71391,385011,5713,710,721,223537,12787,387911,230151,618062,208100,350349,335380,243386,120373,94710,139057,132466,973.0,64.0
Puducherry,Karaikal,10.876161726078813,79.82369793621002,637,200222,97809,102413,154916,79903,75013,152638,28835,18391,46,63,54,47880,1868,35618,33715,69333,18943,32899,33458,29456,15930,18998,34908,30326,1047.0,77.0
Puducherry,Mahe,12.006420793787758,75.28275021570326,636,41816,19143,22673,36470,16610,19860,27940,12856,958,3,21,14,7150,574,0,12110,12110,2948,6043,7930,8773,5711,4475,7105,7041,1184.0,87.0
Puducherry,Yanam,16.707695652173904,82.26187304347832,634,55626,27301,28325,39274,19919,19355,53537,1191,873,3,1,4,12859,207,0,15519,15519,3804,10954,8806,8044,4101,3836,11899,10895,1038.0,71.0
Punjab,Amritsar,31.548679820627772,74.79883856502238,49,2490656,1318408,1172248,1684770,932981,751789,690939,12502,54344,1716935,876,3152,461231,29961,275477,385476,660953,197944,313874,283819,328229,203656,142399,430958,379230,889.0,68.0
Punjab,Bathinda,30.190524611973352,75.05685898004438,46,1388525,743197,645328,844868,488261,356607,380569,16299,2474,984286,246,1266,255650,11284,218159,137563,355722,117795,182796,145626,163928,96329,70240,241449,232629,868.0,61.0
Punjab,Faridkot,30.591187250996025,74.79751553784862,45,617508,326671,290837,381285,215767,165518,141363,3125,1227,469789,155,1109,113549,4348,99946,58917,158863,53734,89433,71178,75419,48360,29838,107033,99988,890.0,62.0
Punjab,Fatehgarh Sahib,30.64290947368421,76.36208394736842,40,600163,320795,279368,426033,238696,187337,152851,16808,1698,427521,48,178,113683,5138,117559,57337,174896,51897,102257,83931,95073,59555,34990,104467,99858,871.0,71.0
Punjab,Firozpur,30.63407535211269,74.40245732394365,43,2029074,1071637,957437,1227511,707070,520441,906408,6844,19358,1090815,454,1143,349662,10042,348522,153868,502390,196971,306838,226433,221806,147698,82448,303760,274015,893.0,60.0
Punjab,Gurdaspur,32.04283371212125,75.3204064393939,35,2298323,1212617,1085706,1634719,907660,727059,1074332,27667,176587,1002874,405,580,411216,14428,420860,185488,606348,180897,315156,290618,372317,243539,104345,360051,258924,895.0,71.0
Punjab,Hoshiarpur,31.55157169811319,75.8469857442349,38,1586625,809057,777568,1199699,637927,561772,1000743,23089,14968,538208,3476,2034,319930,13747,422673,128592,551265,143871,256127,238975,301435,176013,93618,285730,210621,961.0,76.0
Punjab,Jalandhar,31.250336907216507,75.54400350515463,37,2193590,1145211,1048379,1622537,882581,739956,1394329,30233,26016,718363,11385,4011,446200,39082,330339,377791,708130,183441,333736,304652,339758,216646,162965,422876,392909,915.0,74.0
Punjab,Kapurthala,31.336592638036837,75.47641165644177,36,815168,426311,388857,576567,316254,260313,336124,10190,5445,453692,6662,553,161206,9732,165433,95770,261203,71698,127031,112774,128828,77442,48221,149071,137713,912.0,71.0
Punjab,Ludhiana,30.76596397379912,75.83110851528383,41,3498739,1867816,1630923,2560225,1428348,1131877,1502403,77713,16517,1863408,2007,19620,703624,58589,395032,641789,1036821,277247,488129,443759,527568,318876,272280,669232,667902,873.0,73.0
Punjab,Mansa,29.919547714285724,75.4304922857143,47,769751,408732,361019,423560,244037,179523,156539,10375,917,598443,123,1577,140099,2673,145603,50786,196389,75708,106162,84553,85953,48663,27461,128019,99571,883.0,55.0
Punjab,Moga,30.756540067340065,75.1600845117845,42,995746,525920,469826,627889,348549,279340,158414,9388,3277,818921,178,436,183396,7897,214295,74144,288439,98764,158812,116716,128693,85642,37417,171503,167596,893.0,63.0
Punjab,Muktsar,30.31243303303303,74.5518747747748,44,901896,475622,426274,524848,300401,224447,254920,4333,1681,638625,240,744,166585,4571,149507,74650,224157,90240,137470,101852,104682,62612,36905,152188,133635,896.0,58.0
Punjab,Patiala,30.214540380693364,76.27505893949697,48,1895686,1002522,893164,1266791,711052,555739,783306,40043,5683,1059944,245,1914,352929,24274,299279,218090,517369,173890,283837,239609,256826,157435,141947,327085,309524,891.0,67.0
Punjab,Rupnagar,30.910937330754347,76.53743500967126,51,684627,357485,327142,502731,278534,224197,304481,14492,2094,361045,118,653,129123,6600,148162,60537,208699,53005,107715,98135,116836,68794,38823,114310,88385,915.0,73.0
Punjab,Sangrur,30.185045204336895,75.89437014178496,53,1655169,878029,777140,1002077,570413,431664,389410,179116,2406,1077438,268,3222,305557,10736,292156,156788,448944,163251,250833,197901,220210,130155,73636,282915,259912,885.0,61.0
Rajasthan,Ajmer,26.199300378787903,74.6990419191919,119,2583052,1324085,1258967,1526673,926268,600405,2201663,314159,10605,6799,417,45614,393498,13499,409335,274919,684254,379043,394576,313680,200191,130608,172683,305048,204571,951.0,59.0
Rajasthan,Alwar,27.55271738035265,76.65359630562563,104,3674179,1939026,1735153,2182476,1359829,822647,3039279,547335,2696,64532,4384,13221,485723,9750,782294,212967,995261,492781,492981,468628,324050,230415,222622,330836,172919,895.0,59.0
Rajasthan,Banswara,23.453642032967014,74.44246868131869,125,1797485,907754,889731,829343,513854,315489,1701234,48834,22250,427,138,22613,120603,2324,390437,39407,429844,240067,190259,137780,75011,50438,47094,72390,45574,980.0,46.0
Rajasthan,Baran,24.98023243243244,76.86210651828291,128,1222755,633945,588810,693307,432607,260700,1133349,79984,1432,3066,84,2795,161310,1363,249184,69804,318988,203489,194024,144190,76209,46847,49939,92962,42258,929.0,57.0
Rajasthan,Barmer,25.77070908045978,71.50297126436782,115,2603751,1369022,1234729,1188322,783461,404861,2244882,321192,1157,450,157,34010,126494,2766,542825,55980,598805,406804,352636,219932,101291,52272,39533,234694,66597,902.0,46.0
Rajasthan,Bharatpur,27.32411858037578,77.21752077244258,105,2548462,1355726,1192736,1480869,943910,536959,2143046,371286,1576,23456,899,5758,288723,4179,479437,129697,609134,363676,330336,314953,211938,147520,132571,198184,85903,880.0,58.0
Rajasthan,Bhilwara,25.45119767759564,74.63947595628417,122,2408523,1220736,1187787,1256126,777582,478544,2224839,142427,1978,1468,183,35149,373644,6207,530015,145865,675880,398993,338296,258990,141250,92785,106667,231845,115740,973.0,52.0
Rajasthan,Bikaner,28.12489068322981,73.26943322981371,101,2363937,1240801,1123136,1278801,782399,496402,2073356,235741,1901,20072,285,30850,220793,7607,335754,196179,531933,410155,333211,254335,143669,80296,101714,301031,195188,905.0,54.0
Rajasthan,Bundi,25.48580716049379,75.79984074074079,121,1110906,577160,533746,585044,371705,213339,1017688,66609,682,11059,144,13455,136969,1392,239836,63452,303288,153500,159218,121104,63248,41227,41052,77636,42082,925.0,53.0
Rajasthan,Chittaurgarh,24.631623761665463,74.80010997846382,126,1544338,783171,761167,821825,514851,306974,1413163,97855,1274,1515,252,25843,268172,4941,366780,88873,455653,245603,225700,170455,90889,58129,67155,138788,67820,972.0,53.0
Rajasthan,Churu,28.29330375536484,74.65846427038629,102,2039547,1051446,988101,1149269,696729,452540,1777879,249736,958,402,188,7104,231696,2577,344897,148996,493893,336671,302022,237220,161520,100677,77282,268120,200805,940.0,56.0
Rajasthan,Dausa,26.91234817629181,76.57342097264443,109,1634409,857787,776622,938051,596935,341116,1582335,45488,439,296,94,3737,195277,1719,361084,59610,420694,229035,235474,208537,135234,92559,90833,85330,50480,905.0,57.0
Rajasthan,Dhaulpur,26.72397054945053,77.74476219780222,106,1206516,653647,552869,683098,435721,247377,1127520,72258,688,1356,92,2739,96086,1330,214670,58626,273296,207566,172914,132964,77360,45590,37856,77503,33172,846.0,57.0
Rajasthan,Dungarpur,23.75104807692308,73.84765641025645,124,1388552,696532,692020,681591,415820,265771,1340065,28662,830,240,226,16141,141275,1477,322816,31547,354363,238847,175059,114245,60656,42887,39312,62463,38043,994.0,49.0
Rajasthan,Ganganagar,29.256785412667963,73.56192303262948,99,1969168,1043340,925828,1193343,710908,482435,1437144,50688,2077,474853,938,1988,283142,6295,397697,164897,562594,237042,314107,238397,163098,105734,104071,332389,316783,887.0,61.0
Rajasthan,Hanumangarh,29.1813351791531,74.74632573289902,100,1774692,931184,843508,1034136,624281,409855,1433067,118673,1542,216997,241,1935,243163,3360,389059,108694,497753,239601,273441,219194,153628,104087,84185,278085,278373,906.0,58.0
Rajasthan,Jaipur,27.033459290187885,75.77117286012533,110,6626178,3468507,3157671,4300965,2554793,1746172,5819980,687452,12708,18782,1020,81079,990085,76565,754841,977838,1732679,819004,875940,823570,659389,455527,703673,816767,694107,910.0,65.0
Rajasthan,Jaisalmer,26.86900838548185,71.18371877346682,114,669919,361708,308211,308653,210415,98238,497045,168129,874,1723,98,1521,43141,754,159117,30830,189947,109484,71132,41264,20142,12759,10604,79428,26456,852.0,46.0
Rajasthan,Jalor,25.07578093797277,72.18647261724662,116,1828730,936634,892096,829582,543923,285659,1732852,78990,730,231,144,14640,161845,1585,419216,48202,467418,270997,277152,181691,75304,32366,25210,145214,51153,952.0,45.0
Rajasthan,Jhalawar,24.24725541474657,76.11242891705065,129,1411129,725143,685986,739792,466815,272977,1299751,96164,842,819,46,12488,220428,1750,298624,63763,362387,226614,203488,143108,73388,46267,47985,110586,46984,946.0,52.0
Rajasthan,Jhunjhunun,28.13517401247401,75.52840893970894,103,2137045,1095896,1041149,1370360,815834,554526,1905682,228178,1004,275,56,548,297559,4828,500452,150357,650809,296093,305626,301866,256621,192240,158936,297078,205571,950.0,64.0
Rajasthan,Jodhpur,26.678460838536967,73.00450847457628,113,3687165,1923928,1763237,2031532,1265753,765779,3224399,411558,6035,4123,514,36697,408808,19335,584215,307442,891657,497762,512035,405132,259304,154789,177199,481462,248676,916.0,55.0
Rajasthan,Karauli,26.51901555555556,76.96081818181815,107,1458248,783639,674609,805849,531904,273945,1370977,81553,602,297,70,3424,132079,1059,305047,59308,364355,220644,193938,170399,104208,69443,67639,69366,41754,861.0,55.0
Rajasthan,Kota,25.175718080000014,76.18618928000001,127,1951014,1021161,929853,1298345,765396,532949,1661307,243993,5665,11058,280,25742,339899,12843,203454,311735,515189,286676,294591,250092,172538,118710,167778,265337,195286,911.0,67.0
Rajasthan,Nagaur,27.07862016048146,74.14215667001012,112,3307743,1696325,1611418,1758624,1102750,655874,2833443,454487,1912,366,163,12940,347344,4449,675712,166489,842201,513871,486057,388822,242053,147701,117444,393528,209311,950.0,53.0
Rajasthan,Pali,25.80490393541874,73.55285640766907,118,2037573,1025422,1012151,1085693,667381,418312,1870543,143476,1345,1540,141,18974,326793,4043,512909,139808,652717,293818,359329,271312,144581,71472,67021,274998,124303,987.0,53.0
Rajasthan,Rajsamand,25.24894767441859,73.96570215946844,123,1156597,581339,575258,619139,383334,235805,1105676,33677,759,260,100,14966,193276,1989,304622,61054,365676,190090,190388,140839,72969,41063,34286,105451,49135,990.0,54.0
Rajasthan,Sawai Madhopur,26.251081180223288,76.4219283891548,108,1335551,704031,631520,741748,486184,255564,1165505,155681,945,812,177,9991,140947,1887,282057,71264,353321,205450,172925,151108,87349,57625,70870,81379,52475,897.0,56.0
Rajasthan,Sikar,27.64644058641976,75.29317422839503,111,2677333,1374990,1302343,1652117,995275,656842,2342076,327583,1122,356,177,4050,339457,5647,527560,178274,705834,369959,438872,367412,282595,200430,181282,328313,222955,947.0,62.0
Rajasthan,Sirohi,24.7976905263158,72.75309131578943,117,1036346,534231,502115,476806,309900,166906,996562,30479,1284,572,114,6829,134089,2146,238535,69639,308174,117971,147381,110385,58213,30724,27076,91080,54218,940.0,46.0
Rajasthan,Tonk,26.153935071707927,75.79192216427637,120,1421326,728136,693190,749659,478329,271330,1243527,153146,754,378,122,22458,158264,1908,298911,81755,380666,237191,190750,154825,91853,64431,67155,92778,49974,952.0,53.0
Rajasthan,Udaipur,24.44076752136749,73.84029839743584,130,3068420,1566801,1501619,1582629,973444,609185,2869976,104307,7406,4278,209,78647,357846,14211,665449,182769,848218,442946,386075,277392,164290,102085,142672,223077,150738,958.0,52.0
Sikkim,East,27.29600352941175,88.74908392156858,93,1709346,907500,801846,1352998,748382,604616,1410852,178807,15792,53027,2643,46927,352758,80037,1086,461132,462218,86484,219061,260094,267825,235187,246988,333378,331089,884.0,79.0
Tamil Nadu,Ariyalur,11.190514836795256,79.22249643916912,616,754894,374703,380191,480604,269582,211022,708397,7942,37403,104,88,65,177502,1749,223955,30322,254277,60697,134123,113437,96860,53934,57524,40121,35933,1015.0,64.0
Tamil Nadu,Chennai,13.058098905608748,80.28139151846806,603,4646732,2335844,2310888,3776276,1968079,1808197,3751322,439270,358662,2851,2804,51708,1096334,217368,0,1314125,1314125,167207,516445,720331,801050,464207,905515,1073399,1057802,989.0,81.0
Tamil Nadu,Coimbatore,10.871376995940452,77.07619012178621,632,3458045,1729297,1728748,2635907,1394790,1241117,3044145,211035,190314,1112,435,3284,896325,63273,284795,884957,1169752,220388,466745,523563,526165,273098,440520,852521,630809,1000.0,76.0
Tamil Nadu,Cuddalore,11.57587300613498,79.63002365371497,617,2605914,1311697,1294217,1815281,1000322,814959,2391675,123749,83334,401,236,1280,598412,15396,497429,260780,758209,169844,412237,418769,386652,186394,227530,293116,230004,987.0,70.0
Tamil Nadu,Dharmapuri,12.300141200000006,78.11509813333339,630,1506843,774303,732540,917709,527599,390110,1452956,38304,14089,164,39,37,337972,3651,396819,91107,487926,129778,240222,221194,177877,103367,112592,181094,72402,946.0,61.0
Tamil Nadu,Dindigul,10.377801390820574,77.78011279554937,612,2159775,1080938,1078837,1481834,816180,665654,1879494,105012,169945,313,256,71,500057,9155,443818,269724,713542,207751,386421,372636,282628,153100,163050,356703,187447,998.0,69.0
Tamil Nadu,Erode,11.267012155963302,77.42034334862392,610,2251744,1129868,1121876,1492662,828300,664362,2115455,76098,55899,435,148,639,595211,18604,411286,432398,843684,175017,345914,319484,269016,155344,215514,503567,322847,993.0,66.0
Tamil Nadu,Kancheepuram,12.496424756511884,80.08820360135913,604,3998252,2012958,1985294,3013382,1611461,1401921,3537399,173785,256762,1620,990,4962,961161,100322,438799,774705,1213504,183054,535947,608188,634172,312208,526886,805076,651240,986.0,75.0
Tamil Nadu,Kanniyakumari,8.183466300191206,77.32053064053538,629,1870374,926345,944029,1548738,780541,768197,909872,78590,876299,160,438,156,465692,15673,104253,493788,598041,134236,331559,314029,322511,226312,254107,300602,427853,1019.0,83.0
Tamil Nadu,Karur,10.79532776617955,78.08749686847604,613,1064493,528184,536309,727044,401726,325318,993666,53292,16483,115,29,7,264949,4915,212241,152420,364661,76629,190229,167466,146666,77874,85595,168148,118708,1015.0,68.0
Tamil Nadu,Madurai,9.904313833333331,78.01366033333332,623,3038252,1526475,1511777,2273430,1223810,1049620,2760502,168881,97711,520,199,1532,754141,34097,417718,592723,1010441,234611,525151,532616,453509,250285,363152,551839,472221,990.0,75.0
Tamil Nadu,Nagapattinam,10.789468161718286,79.79437299431483,618,1616450,798127,818323,1213008,640916,572092,1435072,128617,47579,184,450,963,381940,5585,399016,118724,517740,136593,323359,313357,249630,122350,125639,155663,163184,1025.0,75.0
Tamil Nadu,Namakkal,11.33766638477801,78.14624841437633,609,1726601,869280,857321,1176131,653312,522819,1673652,32483,16909,183,108,84,441044,8960,370357,257127,627484,123573,297179,247516,214836,126468,169206,330625,194417,986.0,68.0
Tamil Nadu,Perambalur,11.260137758112096,78.86034011799416,615,565223,282157,283066,375823,208011,167812,521658,32702,10301,83,39,38,135751,1507,155413,33179,188592,85210,106751,85101,71650,41447,44025,56453,33135,1003.0,66.0
Tamil Nadu,Pudukkottai,10.130514816433578,79.05444484265728,621,1618345,803188,815157,1110545,608776,501769,1428784,114194,72850,119,81,32,354493,4494,399712,104229,503941,97231,283299,270046,251855,121706,111731,112174,109247,1015.0,69.0
Tamil Nadu,Ramanathapuram,9.31286995153476,78.99185362412462,626,1353445,682658,670787,978946,536487,442459,1047411,208038,91139,154,86,29,291400,5172,290478,126761,417239,246909,293886,236511,189132,105978,97405,130578,120474,983.0,72.0
Tamil Nadu,Salem,11.629324202127655,78.2478257978723,608,3482056,1781571,1700485,2285562,1285107,1000455,3326357,95487,53841,412,174,992,835377,20660,572813,597539,1170352,188672,571061,518763,457866,242306,296399,573822,321173,954.0,66.0
Tamil Nadu,Sivaganga,9.960306580645158,78.56535729032255,622,1339101,668672,670429,959744,526304,433440,1186078,74310,75481,150,80,109,314270,5773,309224,143193,452417,101778,216931,236700,199263,103903,115894,149850,139173,1003.0,72.0
Tamil Nadu,Thanjavur,10.387692255892237,79.3194869107745,620,2405890,1182416,1223474,1790998,944264,846734,2075870,190814,133971,231,795,1256,555582,13495,479070,274302,753372,138375,431983,419605,373111,178126,222410,275134,272623,1035.0,74.0
Tamil Nadu,Theni,9.924066666666668,77.43458833333332,624,1245899,625683,620216,870080,479403,390677,1148990,56751,37574,152,79,28,312310,4667,189328,221295,410623,90590,219747,213496,156676,95231,101147,275383,134167,991.0,70.0
Tamil Nadu,Thiruvallur,13.275858101752885,80.19724702864492,602,3728104,1876062,1852042,2791721,1495711,1296010,3325823,143093,233633,1422,951,3693,909400,75634,387237,732196,1119433,181452,461918,600731,622789,303091,451321,786843,636991,987.0,75.0
Tamil Nadu,Thiruvarur,10.368927409395978,79.60322893959727,619,1264277,626693,637584,946471,503085,443386,1132785,96092,33192,258,151,279,303114,4416,321331,86848,408179,138960,250163,243773,203450,103908,99082,116640,130231,1017.0,75.0
Tamil Nadu,Tiruvannamalai,12.419318947368414,79.23265631578953,606,2464875,1235889,1228986,1626813,909803,717010,2294369,91636,66987,232,157,7898,549077,6445,563102,147061,710163,203879,442688,423135,343955,174560,158041,262010,135162,994.0,66.0
Tamil Nadu,Vellore,12.784882632293078,79.02643283582084,605,3936331,1961688,1974643,2773928,1504355,1269573,3397857,414760,111390,676,438,3514,865913,20623,653499,486801,1140300,191963,721473,719731,641585,311434,308514,693191,381181,1007.0,70.0
Tamil Nadu,Virudhunagar,9.468872195892564,77.87641469194315,625,1942288,967709,974579,1398788,760375,638413,1822626,47838,67405,245,87,98,505950,10219,363782,370942,734724,163264,398670,317054,230321,138306,167506,317795,167021,1007.0,72.0
Tripura,Dhalai,23.781360477941163,91.94654283088232,291,378230,194544,183686,276217,151643,124574,307120,8256,22940,175,39120,85,46875,273,89457,14071,103528,64515,84516,74015,21430,9157,6425,15987,58161,944.0,73.0
Tripura,North Tripura,24.121739755351683,92.17842538226292,292,693947,352860,341087,520402,275646,244756,507967,105737,44062,151,34717,307,81601,997,150437,42184,192621,129329,179547,158211,47160,22720,18419,50104,127388,967.0,75.0
